     3.03           OBSERVATION DATA    M                   RINEX VERSION / TYPE
GnssLogger          Google 10           20231130 215533 UTC PGM / RUN BY / DATE
Google GnssLogger                                           MARKER NAME
Unknown                                                     MARKER NUMBER
Unknown             Unknown                                 OBSERVER / AGENCY
Unknown             GnssLogger          v3.0.6.4            REC # / TYPE / VERS
Unknown             Unknown                                 ANT # / TYPE
        0.0000        0.0000        0.0000                  ANTENNA: DELTA H/E/N
G    0 
R    0 
E    0 
  2023    11    30    21    55   33.0000000     GLONASS     TIME OF FIRST OBS
 9 R01  1 R02 -4 R08  6 R10 -7 R11  0 R12 -1 R13 -2 R20  2  GLONASS SLOT / FRQ #
   R21  4                                                   GLONASS SLOT / FRQ #

 C1C    0.000 C1P    0.000 C2C    0.000 C2P    0.000        GLONASS COD/PHS/BIS
                                                            END OF HEADER
> 2023 11 30 21 55 33.4327858  0 21                      
R10
R02
R12
R11
R01
R08
G04
G05
G07
G08
G09
G14
G20
G22
G27
G30
E07
E19
E21
E27
E30
> 2023 11 30 21 55 34.4327858  0 21                      
R10
R02
R12
R11
R01
R08
G04
G05
G07
G08
G09
G14
G20
G22
G27
G30
E07
E19
E21
E27
E30
> 2023 11 30 21 55 35.4327858  0 21                      
R10
R02
R12
R11
R01
R08
G04
G05
G07
G08
G09
G14
G20
G22
G27
G30
E07
E19
E21
E27
E30
> 2023 11 30 21 55 36.4327858  0 21                      
R10
R02
R12
R11
R01
R08
G04
G05
G07
G08
G09
G14
G20
G22
G27
G30
E07
E19
E21
E27
E30
> 2023 11 30 21 55 37.4327858  0 20                      
R10
R02
R12
R11
R01
R08
G04
G05
G07
G08
G09
G14
G20
G22
G27
G30
E07
E19
E21
E27
> 2023 11 30 21 55 38.4327858  0 20                      
R10
R02
R12
R11
R01
R08
G04
G05
G07
G08
G09
G14
G20
G22
G27
G30
E07
E19
E21
E27
> 2023 11 30 21 55 39.4327858  0 20                      
R10
R02
R12
R11
R01
R08
G04
G05
G07
G08
G09
G14
G20
G22
G27
G30
E07
E19
E21
E27
> 2023 11 30 21 55 40.4327858  0 20                      
R10
R02
R12
R11
R01
R08
G04
G05
G07
G08
G09
G14
G20
G22
G27
G30
E07
E19
E21
E27
> 2023 11 30 21 55 41.4327858  0 20                      
R10
R02
R12
R11
R01
R08
G04
G05
G07
G08
G09
G14
G20
G22
G27
G30
E07
E19
E21
E27
> 2023 11 30 21 55 42.4327858  0 20                      
R10
R02
R12
R11
R01
R08
G04
G05
G07
G08
G09
G14
G20
G22
G27
G30
E07
E19
E21
E27
> 2023 11 30 21 55 43.4327858  0 19                      
R02
R12
R11
R01
R08
G04
G05
G07
G08
G09
G14
G20
G22
G27
G30
E07
E19
E21
E27
> 2023 11 30 21 55 44.4327858  0 19                      
R02
R12
R11
R01
R08
G04
G05
G07
G08
G09
G14
G20
G22
G27
G30
E07
E19
E21
E27
> 2023 11 30 21 55 45.4327858  0 19                      
R02
R12
R11
R01
R08
G04
G05
G07
G08
G09
G14
G20
G22
G27
G30
E07
E19
E21
E27
> 2023 11 30 21 55 46.4327858  0 19                      
R02
R12
R11
R01
R08
G04
G05
G07
G08
G09
G14
G20
G22
G27
G30
E07
E19
E21
E27
> 2023 11 30 21 55 47.4327858  0 19                      
R02
R12
R11
R01
R08
G04
G05
G07
G08
G09
G14
G20
G22
G27
G30
E07
E19
E21
E27
> 2023 11 30 21 55 48.4327858  0 19                      
R02
R12
R11
R01
R08
G04
G05
G07
G08
G09
G14
G20
G22
G27
G30
E07
E19
E21
E27
> 2023 11 30 21 55 49.4327858  0 19                      
R02
R12
R11
R01
R08
G04
G05
G07
G08
G09
G14
G20
G22
G27
G30
E07
E19
E21
E27
> 2023 11 30 21 55 50.4327858  0 19                      
R02
R12
R11
R01
R08
G04
G05
G07
G08
G09
G14
G20
G22
G27
G30
E07
E19
E21
E27
> 2023 11 30 21 55 51.4327858  0 19                      
R02
R12
R11
R01
R08
G04
G05
G07
G08
G09
G14
G20
G22
G27
G30
E07
E19
E21
E27
> 2023 11 30 21 55 52.4327858  0 19                      
R02
R12
R11
R01
R08
G04
G05
G07
G08
G09
G14
G20
G22
G27
G30
E07
E19
E21
E27
> 2023 11 30 21 55 53.4327858  0 19                      
R02
R12
R11
R01
R08
G04
G05
G07
G08
G09
G14
G20
G22
G27
G30
E07
E19
E21
E27
> 2023 11 30 21 55 54.4327857  0 19                      
R02
R12
R11
R01
R08
G04
G05
G07
G08
G09
G14
G20
G22
G27
G30
E07
E19
E21
E27
> 2023 11 30 21 55 55.4327857  0 20                      
R10
R02
R12
R11
R01
R08
G04
G05
G07
G08
G09
G14
G20
G22
G27
G30
E07
E19
E21
E27
> 2023 11 30 21 55 56.4327857  0 20                      
R10
R02
R12
R11
R01
R08
G04
G05
G07
G08
G09
G14
G20
G22
G27
G30
E07
E19
E21
E27
> 2023 11 30 21 55 57.4327857  0 20                      
R10
R02
R12
R11
R01
R08
G04
G05
G07
G08
G09
G14
G20
G22
G27
G30
E07
E19
E21
E27
> 2023 11 30 21 55 58.4327857  0 20                      
R10
R02
R12
R11
R01
R08
G04
G05
G07
G08
G09
G14
G20
G22
G27
G30
E07
E19
E21
E27
> 2023 11 30 21 55 59.4327857  0 20                      
R10
R02
R12
R11
R01
R08
G04
G05
G07
G08
G09
G14
G20
G22
G27
G30
E07
E19
E21
E27
> 2023 11 30 21 56 00.4327857  0 20                      
R10
R02
R12
R11
R01
R08
G04
G05
G07
G08
G09
G14
G20
G22
G27
G30
E07
E19
E21
E27
> 2023 11 30 21 56 01.4327857  0 20                      
R10
R02
R12
R11
R01
R08
G04
G05
G07
G08
G09
G14
G20
G22
G27
G30
E07
E19
E21
E27
> 2023 11 30 21 56 02.4327857  0 20                      
R10
R02
R12
R11
R01
R08
G04
G05
G07
G08
G09
G14
G20
G22
G27
G30
E07
E19
E21
E27
> 2023 11 30 21 56 03.4327857  0 20                      
R10
R02
R12
R11
R01
R08
G04
G05
G07
G08
G09
G14
G20
G22
G27
G30
E07
E19
E21
E27
> 2023 11 30 21 56 04.4327857  0 20                      
R10
R02
R12
R11
R01
R08
G04
G05
G07
G08
G09
G14
G20
G22
G27
G30
E07
E19
E21
E27
> 2023 11 30 21 56 05.4327857  0 20                      
R10
R02
R12
R11
R01
R08
G04
G05
G07
G08
G09
G14
G20
G22
G27
G30
E07
E19
E21
E27
> 2023 11 30 21 56 06.4327857  0 20                      
R10
R02
R12
R11
R01
R08
G04
G05
G07
G08
G09
G14
G20
G22
G27
G30
E07
E19
E21
E27
> 2023 11 30 21 56 07.4327857  0 20                      
R10
R02
R12
R11
R01
R08
G04
G05
G07
G08
G09
G14
G20
G22
G27
G30
E07
E19
E21
E27
> 2023 11 30 21 56 08.4327857  0 20                      
R10
R02
R12
R11
R01
R08
G04
G05
G07
G08
G09
G14
G20
G22
G27
G30
E07
E19
E21
E27
> 2023 11 30 21 56 09.4327857  0 20                      
R10
R02
R12
R11
R01
R08
G04
G05
G07
G08
G09
G14
G20
G22
G27
G30
E07
E19
E21
E27
> 2023 11 30 21 56 10.4327857  0 20                      
R10
R02
R12
R11
R01
R08
G04
G05
G07
G08
G09
G14
G20
G22
G27
G30
E07
E19
E21
E27
> 2023 11 30 21 56 11.4327857  0 20                      
R10
R02
R12
R11
R01
R08
G04
G05
G07
G08
G09
G14
G20
G22
G27
G30
E07
E19
E21
E27
> 2023 11 30 21 56 12.4327857  0 20                      
R10
R02
R12
R11
R01
R08
G04
G05
G07
G08
G09
G14
G20
G22
G27
G30
E07
E19
E21
E27
> 2023 11 30 21 56 13.4327857  0 20                      
R10
R02
R12
R11
R01
R08
G04
G05
G07
G08
G09
G14
G20
G22
G27
G30
E07
E19
E21
E27
> 2023 11 30 21 56 14.4327858  0 20                      
R10
R02
R12
R11
R01
R08
G04
G05
G07
G08
G09
G14
G20
G22
G27
G30
E07
E19
E21
E27
> 2023 11 30 21 56 15.4327858  0 19                      
R02
R12
R11
R01
R08
G04
G05
G07
G08
G09
G14
G20
G22
G27
G30
E07
E19
E21
E27
> 2023 11 30 21 56 16.4327858  0 19                      
R02
R12
R11
R01
R08
G04
G05
G07
G08
G09
G14
G20
G22
G27
G30
E07
E19
E21
E27
> 2023 11 30 21 56 17.4327858  0 19                      
R02
R12
R11
R01
R08
G04
G05
G07
G08
G09
G14
G20
G22
G27
G30
E07
E19
E21
E27
> 2023 11 30 21 56 18.4327858  0 19                      
R02
R12
R11
R01
R08
G04
G05
G07
G08
G09
G14
G20
G22
G27
G30
E07
E19
E21
E27
> 2023 11 30 21 56 19.4327858  0 19                      
R02
R12
R11
R01
R08
G04
G05
G07
G08
G09
G14
G20
G22
G27
G30
E07
E19
E21
E27
> 2023 11 30 21 56 20.4327858  0 19                      
R02
R12
R11
R01
R08
G04
G05
G07
G08
G09
G14
G20
G22
G27
G30
E07
E19
E21
E27
> 2023 11 30 21 56 21.4327858  0 19                      
R02
R12
R11
R01
R08
G04
G05
G07
G08
G09
G14
G20
G22
G27
G30
E07
E19
E21
E27
> 2023 11 30 21 56 22.4327858  0 19                      
R02
R12
R11
R01
R08
G04
G05
G07
G08
G09
G14
G20
G22
G27
G30
E07
E19
E21
E27
> 2023 11 30 21 56 23.4327858  0 19                      
R02
R12
R11
R01
R08
G04
G05
G07
G08
G09
G14
G20
G22
G27
G30
E07
E19
E21
E27
> 2023 11 30 21 56 24.4327859  0 19                      
R02
R12
R11
R01
R08
G04
G05
G07
G08
G09
G14
G20
G22
G27
G30
E07
E19
E21
E27
> 2023 11 30 21 56 25.4327859  0 19                      
R02
R12
R11
R01
R08
G04
G05
G07
G08
G09
G14
G20
G22
G27
G30
E07
E19
E21
E27
> 2023 11 30 21 56 26.4327859  0 19                      
R02
R12
R11
R01
R08
G04
G05
G07
G08
G09
G14
G20
G22
G27
G30
E07
E19
E21
E27
> 2023 11 30 21 56 27.4327859  0 19                      
R02
R12
R11
R01
R08
G04
G05
G07
G08
G09
G14
G20
G22
G27
G30
E07
E19
E21
E27
> 2023 11 30 21 56 28.4327858  0 19                      
R02
R12
R11
R01
R08
G04
G05
G07
G08
G09
G14
G20
G22
G27
G30
E07
E19
E21
E27
> 2023 11 30 21 56 29.4327858  0 19                      
R02
R12
R11
R01
R08
G04
G05
G07
G08
G09
G14
G20
G22
G27
G30
E07
E19
E21
E27
> 2023 11 30 21 56 30.4327859  0 19                      
R02
R12
R11
R01
R08
G04
G05
G07
G08
G09
G14
G20
G22
G27
G30
E07
E19
E21
E27
> 2023 11 30 21 56 31.4327859  0 19                      
R02
R12
R11
R01
R08
G04
G05
G07
G08
G09
G14
G20
G22
G27
G30
E07
E19
E21
E27
> 2023 11 30 21 56 32.4327859  0 19                      
R02
R12
R11
R01
R08
G04
G05
G07
G08
G09
G14
G20
G22
G27
G30
E07
E19
E21
E27
> 2023 11 30 21 56 33.4327859  0 19                      
R02
R12
R11
R01
R08
G04
G05
G07
G08
G09
G14
G20
G22
G27
G30
E07
E19
E21
E27
> 2023 11 30 21 56 34.4327859  0 19                      
R02
R12
R11
R01
R08
G04
G05
G07
G08
G09
G14
G20
G22
G27
G30
E07
E19
E21
E27
> 2023 11 30 21 56 35.4327859  0 19                      
R02
R12
R11
R01
R08
G04
G05
G07
G08
G09
G14
G20
G22
G27
G30
E07
E19
E21
E27
> 2023 11 30 21 56 36.4327860  0 19                      
R02
R12
R11
R01
R08
G04
G05
G07
G08
G09
G14
G20
G22
G27
G30
E07
E19
E21
E27
> 2023 11 30 21 56 37.4327860  0 19                      
R02
R12
R11
R01
R08
G04
G05
G07
G08
G09
G14
G20
G22
G27
G30
E07
E19
E21
E27
> 2023 11 30 21 56 38.4327860  0 19                      
R02
R12
R11
R01
R08
G04
G05
G07
G08
G09
G14
G20
G22
G27
G30
E07
E19
E21
E27
> 2023 11 30 21 56 39.4327861  0 19                      
R02
R12
R11
R01
R08
G04
G05
G07
G08
G09
G14
G20
G22
G27
G30
E07
E19
E21
E27
> 2023 11 30 21 56 40.4327861  0 19                      
R02
R12
R11
R01
R08
G04
G05
G07
G08
G09
G14
G20
G22
G27
G30
E07
E19
E21
E27
> 2023 11 30 21 56 41.4327861  0 19                      
R02
R12
R11
R01
R08
G04
G05
G07
G08
G09
G14
G20
G22
G27
G30
E07
E19
E21
E27
> 2023 11 30 21 56 42.4327861  0 19                      
R02
R12
R11
R01
R08
G04
G05
G07
G08
G09
G14
G20
G22
G27
G30
E07
E19
E21
E27
> 2023 11 30 21 56 43.4327862  0 19                      
R02
R12
R11
R01
R08
G04
G05
G07
G08
G09
G14
G20
G22
G27
G30
E07
E19
E21
E27
> 2023 11 30 21 56 44.4327862  0 19                      
R02
R12
R11
R01
R08
G04
G05
G07
G08
G09
G14
G20
G22
G27
G30
E07
E19
E21
E27
> 2023 11 30 21 56 45.4327862  0 19                      
R02
R12
R11
R01
R08
G04
G05
G07
G08
G09
G14
G20
G22
G27
G30
E07
E19
E21
E27
> 2023 11 30 21 56 46.4327862  0 19                      
R02
R12
R11
R01
R08
G04
G05
G07
G08
G09
G14
G20
G22
G27
G30
E07
E19
E21
E27
> 2023 11 30 21 56 47.4327862  0 19                      
R02
R12
R11
R01
R08
G04
G05
G07
G08
G09
G14
G20
G22
G27
G30
E07
E19
E21
E27
> 2023 11 30 21 56 48.4327862  0 19                      
R02
R12
R11
R01
R08
G04
G05
G07
G08
G09
G14
G20
G22
G27
G30
E07
E19
E21
E27
> 2023 11 30 21 56 49.4327862  0 19                      
R02
R12
R11
R01
R08
G04
G05
G07
G08
G09
G14
G20
G22
G27
G30
E07
E19
E21
E27
> 2023 11 30 21 56 50.4327862  0 19                      
R02
R12
R11
R01
R08
G04
G05
G07
G08
G09
G14
G20
G22
G27
G30
E07
E19
E21
E27
> 2023 11 30 21 56 51.4327862  0 19                      
R02
R12
R11
R01
R08
G04
G05
G07
G08
G09
G14
G20
G22
G27
G30
E07
E19
E21
E27
> 2023 11 30 21 56 52.4327862  0 19                      
R02
R12
R11
R01
R08
G04
G05
G07
G08
G09
G14
G20
G22
G27
G30
E07
E19
E21
E27
> 2023 11 30 21 56 53.4327862  0 19                      
R02
R12
R11
R01
R08
G04
G05
G07
G08
G09
G14
G20
G22
G27
G30
E07
E19
E21
E27
> 2023 11 30 21 56 54.4327864  0 20                      
R10
R02
R12
R11
R01
R08
G04
G05
G07
G08
G09
G14
G20
G22
G27
G30
E07
E19
E21
E27
> 2023 11 30 21 56 55.4327864  0 20                      
R10
R02
R12
R11
R01
R08
G04
G05
G07
G08
G09
G14
G20
G22
G27
G30
E07
E19
E21
E27
> 2023 11 30 21 56 56.4327864  0 20                      
R10
R02
R12
R11
R01
R08
G04
G05
G07
G08
G09
G14
G20
G22
G27
G30
E07
E19
E21
E27
> 2023 11 30 21 56 57.4327864  0 20                      
R10
R02
R12
R11
R01
R08
G04
G05
G07
G08
G09
G14
G20
G22
G27
G30
E07
E19
E21
E27
> 2023 11 30 21 56 58.4327864  0 20                      
R10
R02
R12
R11
R01
R08
G04
G05
G07
G08
G09
G14
G20
G22
G27
G30
E07
E19
E21
E27
> 2023 11 30 21 56 59.4327865  0 20                      
R10
R02
R12
R11
R01
R08
G04
G05
G07
G08
G09
G14
G20
G22
G27
G30
E07
E19
E21
E27
> 2023 11 30 21 57 00.4327865  0 20                      
R10
R02
R12
R11
R01
R08
G04
G05
G07
G08
G09
G14
G20
G22
G27
G30
E07
E19
E21
E27
> 2023 11 30 21 57 01.4327865  0 20                      
R10
R02
R12
R11
R01
R08
G04
G05
G07
G08
G09
G14
G20
G22
G27
G30
E07
E19
E21
E27
> 2023 11 30 21 57 02.4327865  0 20                      
R10
R02
R12
R11
R01
R08
G04
G05
G07
G08
G09
G14
G20
G22
G27
G30
E07
E19
E21
E27
> 2023 11 30 21 57 03.4327865  0 20                      
R10
R02
R12
R11
R01
R08
G04
G05
G07
G08
G09
G14
G20
G22
G27
G30
E07
E19
E21
E27
> 2023 11 30 21 57 04.4327865  0 20                      
R10
R02
R12
R11
R01
R08
G04
G05
G07
G08
G09
G14
G20
G22
G27
G30
E07
E19
E21
E27
> 2023 11 30 21 57 05.4327865  0 20                      
R10
R02
R12
R11
R01
R08
G04
G05
G07
G08
G09
G14
G20
G22
G27
G30
E07
E19
E21
E27
> 2023 11 30 21 57 06.4327866  0 20                      
R10
R02
R12
R11
R01
R08
G04
G05
G07
G08
G09
G14
G20
G22
G27
G30
E07
E19
E21
E27
> 2023 11 30 21 57 07.4327866  0 20                      
R10
R02
R12
R11
R01
R08
G04
G05
G07
G08
G09
G14
G20
G22
G27
G30
E07
E19
E21
E27
> 2023 11 30 21 57 08.4327866  0 20                      
R10
R02
R12
R11
R01
R08
G04
G05
G07
G08
G09
G14
G20
G22
G27
G30
E07
E19
E21
E27
> 2023 11 30 21 57 09.4327866  0 20                      
R10
R02
R12
R11
R01
R08
G04
G05
G07
G08
G09
G14
G20
G22
G27
G30
E07
E19
E21
E27
> 2023 11 30 21 57 10.4327866  0 20                      
R10
R02
R12
R11
R01
R08
G04
G05
G07
G08
G09
G14
G20
G22
G27
G30
E07
E19
E21
E27
> 2023 11 30 21 57 11.4327866  0 20                      
R10
R02
R12
R11
R01
R08
G04
G05
G07
G08
G09
G14
G20
G22
G27
G30
E07
E19
E21
E27
> 2023 11 30 21 57 12.4327867  0 20                      
R10
R02
R12
R11
R01
R08
G04
G05
G07
G08
G09
G14
G20
G22
G27
G30
E07
E19
E21
E27
> 2023 11 30 21 57 13.4327867  0 20                      
R10
R02
R12
R11
R01
R08
G04
G05
G07
G08
G09
G14
G20
G22
G27
G30
E07
E19
E21
E27
> 2023 11 30 21 57 14.4327867  0 20                      
R10
R02
R12
R11
R01
R08
G04
G05
G07
G08
G09
G14
G20
G22
G27
G30
E07
E19
E21
E27
> 2023 11 30 21 57 15.4327867  0 20                      
R10
R02
R12
R11
R01
R08
G04
G05
G07
G08
G09
G14
G20
G22
G27
G30
E07
E19
E21
E27
> 2023 11 30 21 57 16.4327867  0 20                      
R10
R02
R12
R11
R01
R08
G04
G05
G07
G08
G09
G14
G20
G22
G27
G30
E07
E19
E21
E27
> 2023 11 30 21 57 17.4327867  0 20                      
R10
R02
R12
R11
R01
R08
G04
G05
G07
G08
G09
G14
G20
G22
G27
G30
E07
E19
E21
E27
> 2023 11 30 21 57 18.4327867  0 20                      
R10
R02
R12
R11
R01
R08
G04
G05
G07
G08
G09
G14
G20
G22
G27
G30
E07
E19
E21
E27
> 2023 11 30 21 57 19.4327867  0 20                      
R10
R02
R12
R11
R01
R08
G04
G05
G07
G08
G09
G14
G20
G22
G27
G30
E07
E19
E21
E27
> 2023 11 30 21 57 20.4327867  0 20                      
R10
R02
R12
R11
R01
R08
G04
G05
G07
G08
G09
G14
G20
G22
G27
G30
E07
E19
E21
E27
> 2023 11 30 21 57 21.4327867  0 19                      
R02
R12
R11
R01
R08
G04
G05
G07
G08
G09
G14
G20
G22
G27
G30
E07
E19
E21
E27
> 2023 11 30 21 57 22.4327867  0 19                      
R02
R12
R11
R01
R08
G04
G05
G07
G08
G09
G14
G20
G22
G27
G30
E07
E19
E21
E27
> 2023 11 30 21 57 23.4327867  0 19                      
R02
R12
R11
R01
R08
G04
G05
G07
G08
G09
G14
G20
G22
G27
G30
E07
E19
E21
E27
> 2023 11 30 21 57 24.4327867  0 19                      
R02
R12
R11
R01
R08
G04
G05
G07
G08
G09
G14
G20
G22
G27
G30
E07
E19
E21
E27
> 2023 11 30 21 57 25.4327867  0 19                      
R02
R12
R11
R01
R08
G04
G05
G07
G08
G09
G14
G20
G22
G27
G30
E07
E19
E21
E27
> 2023 11 30 21 57 26.4327867  0 19                      
R02
R12
R11
R01
R08
G04
G05
G07
G08
G09
G14
G20
G22
G27
G30
E07
E19
E21
E27
> 2023 11 30 21 57 27.4327867  0 19                      
R02
R12
R11
R01
R08
G04
G05
G07
G08
G09
G14
G20
G22
G27
G30
E07
E19
E21
E27
> 2023 11 30 21 57 28.4327867  0 19                      
R02
R12
R11
R01
R08
G04
G05
G07
G08
G09
G14
G20
G22
G27
G30
E07
E19
E21
E27
> 2023 11 30 21 57 29.4327867  0 19                      
R02
R12
R11
R01
R08
G04
G05
G07
G08
G09
G14
G20
G22
G27
G30
E07
E19
E21
E27
> 2023 11 30 21 57 30.4327868  0 19                      
R02
R12
R11
R01
R08
G04
G05
G07
G08
G09
G14
G20
G22
G27
G30
E07
E19
E21
E27
> 2023 11 30 21 57 31.4327868  0 19                      
R02
R12
R11
R01
R08
G04
G05
G07
G08
G09
G14
G20
G22
G27
G30
E07
E19
E21
E27
> 2023 11 30 21 57 32.4327868  0 19                      
R02
R12
R11
R01
R08
G04
G05
G07
G08
G09
G14
G20
G22
G27
G30
E07
E19
E21
E27
> 2023 11 30 21 57 33.4327868  0 19                      
R02
R12
R11
R01
R08
G04
G05
G07
G08
G09
G14
G20
G22
G27
G30
E07
E19
E21
E27
> 2023 11 30 21 57 34.4327868  0 20                      
R10
R02
R12
R11
R01
R08
G04
G05
G07
G08
G09
G14
G20
G22
G27
G30
E07
E19
E21
E27
> 2023 11 30 21 57 35.4327868  0 20                      
R10
R02
R12
R11
R01
R08
G04
G05
G07
G08
G09
G14
G20
G22
G27
G30
E07
E19
E21
E27
> 2023 11 30 21 57 36.4327868  0 20                      
R10
R02
R12
R11
R01
R08
G04
G05
G07
G08
G09
G14
G20
G22
G27
G30
E07
E19
E21
E27
> 2023 11 30 21 57 37.4327868  0 20                      
R10
R02
R12
R11
R01
R08
G04
G05
G07
G08
G09
G14
G20
G22
G27
G30
E07
E19
E21
E27
> 2023 11 30 21 57 38.4327868  0 20                      
R10
R02
R12
R11
R01
R08
G04
G05
G07
G08
G09
G14
G20
G22
G27
G30
E07
E19
E21
E27
> 2023 11 30 21 57 39.4327870  0 20                      
R10
R02
R12
R11
R01
R08
G04
G05
G07
G08
G09
G14
G20
G22
G27
G30
E07
E19
E21
E27
> 2023 11 30 21 57 40.4327870  0 20                      
R10
R02
R12
R11
R01
R08
G04
G05
G07
G08
G09
G14
G20
G22
G27
G30
E07
E19
E21
E27
> 2023 11 30 21 57 41.4327870  0 20                      
R10
R02
R12
R11
R01
R08
G04
G05
G07
G08
G09
G14
G20
G22
G27
G30
E07
E19
E21
E27
> 2023 11 30 21 57 42.4327870  0 20                      
R10
R02
R12
R11
R01
R08
G04
G05
G07
G08
G09
G14
G20
G22
G27
G30
E07
E19
E21
E27
> 2023 11 30 21 57 43.4327870  0 20                      
R10
R02
R12
R11
R01
R08
G04
G05
G07
G08
G09
G14
G20
G22
G27
G30
E07
E19
E21
E27
> 2023 11 30 21 57 44.4327870  0 20                      
R10
R02
R12
R11
R01
R08
G04
G05
G07
G08
G09
G14
G20
G22
G27
G30
E07
E19
E21
E27
> 2023 11 30 21 57 45.4327870  0 20                      
R10
R02
R12
R11
R01
R08
G04
G05
G07
G08
G09
G14
G20
G22
G27
G30
E07
E19
E21
E27
> 2023 11 30 21 57 46.4327870  0 20                      
R10
R02
R12
R11
R01
R08
G04
G05
G07
G08
G09
G14
G20
G22
G27
G30
E07
E19
E21
E27
> 2023 11 30 21 57 47.4327870  0 20                      
R10
R02
R12
R11
R01
R08
G04
G05
G07
G08
G09
G14
G20
G22
G27
G30
E07
E19
E21
E27
> 2023 11 30 21 57 48.4327870  0 20                      
R10
R02
R12
R11
R01
R08
G04
G05
G07
G08
G09
G14
G20
G22
G27
G30
E07
E19
E21
E27
> 2023 11 30 21 57 49.4327870  0 20                      
R10
R02
R12
R11
R01
R08
G04
G05
G07
G08
G09
G14
G20
G22
G27
G30
E07
E19
E21
E27
> 2023 11 30 21 57 50.4327870  0 20                      
R10
R02
R12
R11
R01
R08
G04
G05
G07
G08
G09
G14
G20
G22
G27
G30
E07
E19
E21
E27
> 2023 11 30 21 57 51.4327870  0 20                      
R10
R02
R12
R11
R01
R08
G04
G05
G07
G08
G09
G14
G20
G22
G27
G30
E07
E19
E21
E27
> 2023 11 30 21 57 52.4327870  0 20                      
R10
R02
R12
R11
R01
R08
G04
G05
G07
G08
G09
G14
G20
G22
G27
G30
E07
E19
E21
E27
> 2023 11 30 21 57 53.4327871  0 19                      
R02
R12
R11
R01
R08
G04
G05
G07
G08
G09
G14
G20
G22
G27
G30
E07
E19
E21
E27
> 2023 11 30 21 57 54.4327871  0 19                      
R02
R12
R11
R01
R08
G04
G05
G07
G08
G09
G14
G20
G22
G27
G30
E07
E19
E21
E27
> 2023 11 30 21 57 55.4327871  0 19                      
R02
R12
R11
R01
R08
G04
G05
G07
G08
G09
G14
G20
G22
G27
G30
E07
E19
E21
E27
> 2023 11 30 21 57 56.4327871  0 19                      
R02
R12
R11
R01
R08
G04
G05
G07
G08
G09
G14
G20
G22
G27
G30
E07
E19
E21
E27
> 2023 11 30 21 57 57.4327871  0 19                      
R02
R12
R11
R01
R08
G04
G05
G07
G08
G09
G14
G20
G22
G27
G30
E07
E19
E21
E27
> 2023 11 30 21 57 58.4327871  0 19                      
R02
R12
R11
R01
R08
G04
G05
G07
G08
G09
G14
G20
G22
G27
G30
E07
E19
E21
E27
> 2023 11 30 21 57 59.4327871  0 19                      
R02
R12
R11
R01
R08
G04
G05
G07
G08
G09
G14
G20
G22
G27
G30
E07
E19
E21
E27
> 2023 11 30 21 58 00.4327872  0 19                      
R02
R12
R11
R01
R08
G04
G05
G07
G08
G09
G14
G20
G22
G27
G30
E07
E19
E21
E27
> 2023 11 30 21 58 01.4327871  0 19                      
R02
R12
R11
R01
R08
G04
G05
G07
G08
G09
G14
G20
G22
G27
G30
E07
E19
E21
E27
> 2023 11 30 21 58 02.4327871  0 19                      
R02
R12
R11
R01
R08
G04
G05
G07
G08
G09
G14
G20
G22
G27
G30
E07
E19
E21
E27
> 2023 11 30 21 58 03.4327871  0 19                      
R02
R12
R11
R01
R08
G04
G05
G07
G08
G09
G14
G20
G22
G27
G30
E07
E19
E21
E27
> 2023 11 30 21 58 04.4327871  0 19                      
R02
R12
R11
R01
R08
G04
G05
G07
G08
G09
G14
G20
G22
G27
G30
E07
E19
E21
E27
> 2023 11 30 21 58 05.4327872  0 19                      
R02
R12
R11
R01
R08
G04
G05
G07
G08
G09
G14
G20
G22
G27
G30
E07
E19
E21
E27
> 2023 11 30 21 58 06.4327872  0 19                      
R02
R12
R11
R01
R08
G04
G05
G07
G08
G09
G14
G20
G22
G27
G30
E07
E19
E21
E27
> 2023 11 30 21 58 07.4327872  0 19                      
R02
R12
R11
R01
R08
G04
G05
G07
G08
G09
G14
G20
G22
G27
G30
E07
E19
E21
E27
> 2023 11 30 21 58 08.4327872  0 19                      
R02
R12
R11
R01
R08
G04
G05
G07
G08
G09
G14
G20
G22
G27
G30
E07
E19
E21
E27
> 2023 11 30 21 58 09.4327872  0 19                      
R02
R12
R11
R01
R08
G04
G05
G07
G08
G09
G14
G20
G22
G27
G30
E07
E19
E21
E27
> 2023 11 30 21 58 10.4327872  0 19                      
R02
R12
R11
R01
R08
G04
G05
G07
G08
G09
G14
G20
G22
G27
G30
E07
E19
E21
E27
> 2023 11 30 21 58 11.4327872  0 19                      
R02
R12
R11
R01
R08
G04
G05
G07
G08
G09
G14
G20
G22
G27
G30
E07
E19
E21
E27
> 2023 11 30 21 58 12.4327873  0 19                      
R02
R12
R11
R01
R08
G04
G05
G07
G08
G09
G14
G20
G22
G27
G30
E07
E19
E21
E27
> 2023 11 30 21 58 13.4327873  0 19                      
R02
R12
R11
R01
R08
G04
G05
G07
G08
G09
G14
G20
G22
G27
G30
E07
E19
E21
E27
> 2023 11 30 21 58 14.4327873  0 19                      
R02
R12
R11
R01
R08
G04
G05
G07
G08
G09
G14
G20
G22
G27
G30
E07
E19
E21
E27
> 2023 11 30 21 58 15.4327873  0 19                      
R02
R12
R11
R01
R08
G04
G05
G07
G08
G09
G14
G20
G22
G27
G30
E07
E19
E21
E27
> 2023 11 30 21 58 16.4327874  0 19                      
R02
R12
R11
R01
R08
G04
G05
G07
G08
G09
G14
G20
G22
G27
G30
E07
E19
E21
E27
> 2023 11 30 21 58 17.4327874  0 19                      
R02
R12
R11
R01
R08
G04
G05
G07
G08
G09
G14
G20
G22
G27
G30
E07
E19
E21
E27
> 2023 11 30 21 58 18.4327874  0 19                      
R02
R12
R11
R01
R08
G04
G05
G07
G08
G09
G14
G20
G22
G27
G30
E07
E19
E21
E27
> 2023 11 30 21 58 19.4327875  0 20                      
R02
R13
R12
R11
R01
R08
G04
G05
G07
G08
G09
G14
G20
G22
G27
G30
E07
E19
E21
E27
> 2023 11 30 21 58 20.4327875  0 20                      
R02
R13
R12
R11
R01
R08
G04
G05
G07
G08
G09
G14
G20
G22
G27
G30
E07
E19
E21
E27
> 2023 11 30 21 58 21.4327875  0 20                      
R02
R13
R12
R11
R01
R08
G04
G05
G07
G08
G09
G14
G20
G22
G27
G30
E07
E19
E21
E27
> 2023 11 30 21 58 22.4327875  0 20                      
R02
R13
R12
R11
R01
R08
G04
G05
G07
G08
G09
G14
G20
G22
G27
G30
E07
E19
E21
E27
> 2023 11 30 21 58 23.4327876  0 20                      
R02
R13
R12
R11
R01
R08
G04
G05
G07
G08
G09
G14
G20
G22
G27
G30
E07
E19
E21
E27
> 2023 11 30 21 58 24.4327876  0 20                      
R02
R13
R12
R11
R01
R08
G04
G05
G07
G08
G09
G14
G20
G22
G27
G30
E07
E19
E21
E27
> 2023 11 30 21 58 25.4327876  0 20                      
R02
R13
R12
R11
R01
R08
G04
G05
G07
G08
G09
G14
G20
G22
G27
G30
E07
E19
E21
E27
> 2023 11 30 21 58 26.4327876  0 20                      
R02
R13
R12
R11
R01
R08
G04
G05
G07
G08
G09
G14
G20
G22
G27
G30
E07
E19
E21
E27
> 2023 11 30 21 58 27.4327876  0 20                      
R02
R13
R12
R11
R01
R08
G04
G05
G07
G08
G09
G14
G20
G22
G27
G30
E07
E19
E21
E27
> 2023 11 30 21 58 28.4327876  0 20                      
R02
R13
R12
R11
R01
R08
G04
G05
G07
G08
G09
G14
G20
G22
G27
G30
E07
E19
E21
E27
> 2023 11 30 21 58 29.4327876  0 20                      
R02
R13
R12
R11
R01
R08
G04
G05
G07
G08
G09
G14
G20
G22
G27
G30
E07
E19
E21
E27
> 2023 11 30 21 58 30.4327876  0 20                      
R02
R13
R12
R11
R01
R08
G04
G05
G07
G08
G09
G14
G20
G22
G27
G30
E07
E19
E21
E27
> 2023 11 30 21 58 31.4327876  0 20                      
R02
R13
R12
R11
R01
R08
G04
G05
G07
G08
G09
G14
G20
G22
G27
G30
E07
E19
E21
E27
> 2023 11 30 21 58 32.4327876  0 20                      
R02
R13
R12
R11
R01
R08
G04
G05
G07
G08
G09
G14
G20
G22
G27
G30
E07
E19
E21
E27
> 2023 11 30 21 58 33.4327877  0 20                      
R02
R13
R12
R11
R01
R08
G04
G05
G07
G08
G09
G14
G20
G22
G27
G30
E07
E19
E21
E27
> 2023 11 30 21 58 34.4327877  0 20                      
R02
R13
R12
R11
R01
R08
G04
G05
G07
G08
G09
G14
G20
G22
G27
G30
E07
E19
E21
E27
> 2023 11 30 21 58 35.4327877  0 20                      
R02
R13
R12
R11
R01
R08
G04
G05
G07
G08
G09
G14
G20
G22
G27
G30
E07
E19
E21
E27
> 2023 11 30 21 58 36.4327877  0 20                      
R02
R13
R12
R11
R01
R08
G04
G05
G07
G08
G09
G14
G20
G22
G27
G30
E07
E19
E21
E27
> 2023 11 30 21 58 37.4327877  0 20                      
R02
R13
R12
R11
R01
R08
G04
G05
G07
G08
G09
G14
G20
G22
G27
G30
E07
E19
E21
E27
> 2023 11 30 21 58 38.4327877  0 20                      
R02
R13
R12
R11
R01
R08
G04
G05
G07
G08
G09
G14
G20
G22
G27
G30
E07
E19
E21
E27
> 2023 11 30 21 58 39.4327877  0 20                      
R02
R13
R12
R11
R01
R08
G04
G05
G07
G08
G09
G14
G20
G22
G27
G30
E07
E19
E21
E27
> 2023 11 30 21 58 40.4327877  0 20                      
R02
R13
R12
R11
R01
R08
G04
G05
G07
G08
G09
G14
G20
G22
G27
G30
E07
E19
E21
E27
> 2023 11 30 21 58 41.4327877  0 20                      
R02
R13
R12
R11
R01
R08
G04
G05
G07
G08
G09
G14
G20
G22
G27
G30
E07
E19
E21
E27
> 2023 11 30 21 58 42.4327877  0 20                      
R02
R13
R12
R11
R01
R08
G04
G05
G07
G08
G09
G14
G20
G22
G27
G30
E07
E19
E21
E27
> 2023 11 30 21 58 43.4327878  0 20                      
R02
R13
R12
R11
R01
R08
G04
G05
G07
G08
G09
G14
G20
G22
G27
G30
E07
E19
E21
E27
> 2023 11 30 21 58 44.4327878  0 20                      
R02
R13
R12
R11
R01
R08
G04
G05
G07
G08
G09
G14
G20
G22
G27
G30
E07
E19
E21
E27
> 2023 11 30 21 58 45.4327878  0 20                      
R02
R13
R12
R11
R01
R08
G04
G05
G07
G08
G09
G14
G20
G22
G27
G30
E07
E19
E21
E27
> 2023 11 30 21 58 46.4327878  0 20                      
R02
R13
R12
R11
R01
R08
G04
G05
G07
G08
G09
G14
G20
G22
G27
G30
E07
E19
E21
E27
> 2023 11 30 21 58 47.4327878  0 20                      
R02
R13
R12
R11
R01
R08
G04
G05
G07
G08
G09
G14
G20
G22
G27
G30
E07
E19
E21
E27
> 2023 11 30 21 58 48.4327879  0 20                      
R02
R13
R12
R11
R01
R08
G04
G05
G07
G08
G09
G14
G20
G22
G27
G30
E07
E19
E21
E27
> 2023 11 30 21 58 49.4327879  0 20                      
R02
R13
R12
R11
R01
R08
G04
G05
G07
G08
G09
G14
G20
G22
G27
G30
E07
E19
E21
E27
> 2023 11 30 21 58 50.4327879  0 20                      
R02
R13
R12
R11
R01
R08
G04
G05
G07
G08
G09
G14
G20
G22
G27
G30
E07
E19
E21
E27
> 2023 11 30 21 58 51.4327880  0 20                      
R02
R13
R12
R11
R01
R08
G04
G05
G07
G08
G09
G14
G20
G22
G27
G30
E07
E19
E21
E27
> 2023 11 30 21 58 52.4327880  0 20                      
R02
R13
R12
R11
R01
R08
G04
G05
G07
G08
G09
G14
G20
G22
G27
G30
E07
E19
E21
E27
> 2023 11 30 21 58 53.4327880  0 20                      
R02
R13
R12
R11
R01
R08
G04
G05
G07
G08
G09
G14
G20
G22
G27
G30
E07
E19
E21
E27
> 2023 11 30 21 58 54.4327880  0 20                      
R02
R13
R12
R11
R01
R08
G04
G05
G07
G08
G09
G14
G20
G22
G27
G30
E07
E19
E21
E27
> 2023 11 30 21 58 55.4327880  0 20                      
R02
R13
R12
R11
R01
R08
G04
G05
G07
G08
G09
G14
G20
G22
G27
G30
E07
E19
E21
E27
> 2023 11 30 21 58 56.4327880  0 20                      
R02
R13
R12
R11
R01
R08
G04
G05
G07
G08
G09
G14
G20
G22
G27
G30
E07
E19
E21
E27
> 2023 11 30 21 58 57.4327880  0 20                      
R02
R13
R12
R11
R01
R08
G04
G05
G07
G08
G09
G14
G20
G22
G27
G30
E07
E19
E21
E27
> 2023 11 30 21 58 58.4327880  0 20                      
R02
R13
R12
R11
R01
R08
G04
G05
G07
G08
G09
G14
G20
G22
G27
G30
E07
E19
E21
E27
> 2023 11 30 21 58 59.4327881  0 20                      
R02
R13
R12
R11
R01
R08
G04
G05
G07
G08
G09
G14
G20
G22
G27
G30
E07
E19
E21
E27
> 2023 11 30 21 59 00.4327881  0 20                      
R02
R13
R12
R11
R01
R08
G04
G05
G07
G08
G09
G14
G20
G22
G27
G30
E07
E19
E21
E27
> 2023 11 30 21 59 01.4327881  0 20                      
R02
R13
R12
R11
R01
R08
G04
G05
G07
G08
G09
G14
G20
G22
G27
G30
E07
E19
E21
E27
> 2023 11 30 21 59 02.4327880  0 20                      
R02
R13
R12
R11
R01
R08
G04
G05
G07
G08
G09
G14
G20
G22
G27
G30
E07
E19
E21
E27
> 2023 11 30 21 59 03.4327882  0 20                      
R02
R13
R12
R11
R01
R08
G04
G05
G07
G08
G09
G14
G20
G22
G27
G30
E07
E19
E21
E27
> 2023 11 30 21 59 04.4327882  0 20                      
R02
R13
R12
R11
R01
R08
G04
G05
G07
G08
G09
G14
G20
G22
G27
G30
E07
E19
E21
E27
> 2023 11 30 21 59 05.4327882  0 20                      
R02
R13
R12
R11
R01
R08
G04
G05
G07
G08
G09
G14
G20
G22
G27
G30
E07
E19
E21
E27
> 2023 11 30 21 59 06.4327882  0 20                      
R02
R13
R12
R11
R01
R08
G04
G05
G07
G08
G09
G14
G20
G22
G27
G30
E07
E19
E21
E27
> 2023 11 30 21 59 07.4327883  0 20                      
R02
R13
R12
R11
R01
R08
G04
G05
G07
G08
G09
G14
G20
G22
G27
G30
E07
E19
E21
E27
> 2023 11 30 21 59 08.4327883  0 20                      
R02
R13
R12
R11
R01
R08
G04
G05
G07
G08
G09
G14
G20
G22
G27
G30
E07
E19
E21
E27
> 2023 11 30 21 59 09.4327883  0 20                      
R02
R13
R12
R11
R01
R08
G04
G05
G07
G08
G09
G14
G20
G22
G27
G30
E07
E19
E21
E27
> 2023 11 30 21 59 10.4327883  0 20                      
R02
R13
R12
R11
R01
R08
G04
G05
G07
G08
G09
G14
G20
G22
G27
G30
E07
E19
E21
E27
> 2023 11 30 21 59 11.4327884  0 20                      
R02
R13
R12
R11
R01
R08
G04
G05
G07
G08
G09
G14
G20
G22
G27
G30
E07
E19
E21
E27
> 2023 11 30 21 59 12.4327884  0 20                      
R02
R13
R12
R11
R01
R08
G04
G05
G07
G08
G09
G14
G20
G22
G27
G30
E07
E19
E21
E27
> 2023 11 30 21 59 13.4327884  0 20                      
R02
R13
R12
R11
R01
R08
G04
G05
G07
G08
G09
G14
G20
G22
G27
G30
E07
E19
E21
E27
> 2023 11 30 21 59 14.4327884  0 20                      
R02
R13
R12
R11
R01
R08
G04
G05
G07
G08
G09
G14
G20
G22
G27
G30
E07
E19
E21
E27
> 2023 11 30 21 59 15.4327884  0 19                      
R02
R13
R12
R11
R01
R08
G04
G05
G07
G08
G09
G20
G22
G27
G30
E07
E19
E21
E27
> 2023 11 30 21 59 16.4327885  0 19                      
R02
R13
R12
R11
R01
R08
G04
G05
G07
G08
G09
G20
G22
G27
G30
E07
E19
E21
E27
> 2023 11 30 21 59 17.4327885  0 20                      
R02
R13
R12
R11
R01
R08
G04
G05
G07
G08
G09
G14
G20
G22
G27
G30
E07
E19
E21
E27
> 2023 11 30 21 59 18.4327885  0 20                      
R02
R13
R12
R11
R01
R08
G04
G05
G07
G08
G09
G14
G20
G22
G27
G30
E07
E19
E21
E27
> 2023 11 30 21 59 19.4327886  0 21                      
R10
R02
R13
R12
R11
R01
R08
G04
G05
G07
G08
G09
G14
G20
G22
G27
G30
E07
E19
E21
E27
> 2023 11 30 21 59 20.4327885  0 20                      
R10
R02
R12
R11
R01
R08
G04
G05
G07
G08
G09
G14
G20
G22
G27
G30
E07
E19
E21
E27
> 2023 11 30 21 59 21.4327886  0 20                      
R10
R02
R12
R11
R01
R08
G04
G05
G07
G08
G09
G14
G20
G22
G27
G30
E07
E19
E21
E27
> 2023 11 30 21 59 22.4327886  0 20                      
R10
R02
R12
R11
R01
R08
G04
G05
G07
G08
G09
G14
G20
G22
G27
G30
E07
E19
E21
E27
> 2023 11 30 21 59 23.4327886  0 20                      
R10
R02
R12
R11
R01
R08
G04
G05
G07
G08
G09
G14
G20
G22
G27
G30
E07
E19
E21
E27
> 2023 11 30 21 59 24.4327886  0 20                      
R10
R02
R12
R11
R01
R08
G04
G05
G07
G08
G09
G14
G20
G22
G27
G30
E07
E19
E21
E27
> 2023 11 30 21 59 25.4327886  0 20                      
R10
R02
R12
R11
R01
R08
G04
G05
G07
G08
G09
G14
G20
G22
G27
G30
E07
E19
E21
E27
> 2023 11 30 21 59 26.4327886  0 20                      
R10
R02
R12
R11
R01
R08
G04
G05
G07
G08
G09
G14
G20
G22
G27
G30
E07
E19
E21
E27
> 2023 11 30 21 59 27.4327887  0 20                      
R10
R02
R12
R11
R01
R08
G04
G05
G07
G08
G09
G14
G20
G22
G27
G30
E07
E19
E21
E27
> 2023 11 30 21 59 28.4327887  0 20                      
R10
R02
R12
R11
R01
R08
G04
G05
G07
G08
G09
G14
G20
G22
G27
G30
E07
E19
E21
E27
> 2023 11 30 21 59 29.4327887  0 20                      
R10
R02
R12
R11
R01
R08
G04
G05
G07
G08
G09
G14
G20
G22
G27
G30
E07
E19
E21
E27
> 2023 11 30 21 59 30.4327887  0 20                      
R10
R02
R12
R11
R01
R08
G04
G05
G07
G08
G09
G14
G20
G22
G27
G30
E07
E19
E21
E27
> 2023 11 30 21 59 31.4327887  0 20                      
R10
R02
R12
R11
R01
R08
G04
G05
G07
G08
G09
G14
G20
G22
G27
G30
E07
E19
E21
E27
> 2023 11 30 21 59 32.4327887  0 20                      
R10
R02
R12
R11
R01
R08
G04
G05
G07
G08
G09
G14
G20
G22
G27
G30
E07
E19
E21
E27
> 2023 11 30 21 59 33.4327888  0 20                      
R10
R02
R12
R11
R01
R08
G04
G05
G07
G08
G09
G14
G20
G22
G27
G30
E07
E19
E21
E27
> 2023 11 30 21 59 34.4327888  0 20                      
R10
R02
R12
R11
R01
R08
G04
G05
G07
G08
G09
G14
G20
G22
G27
G30
E07
E19
E21
E27
> 2023 11 30 21 59 35.4327888  0 20                      
R10
R02
R12
R11
R01
R08
G04
G05
G07
G08
G09
G14
G20
G22
G27
G30
E07
E19
E21
E27
> 2023 11 30 21 59 36.4327888  0 20                      
R10
R02
R12
R11
R01
R08
G04
G05
G07
G08
G09
G14
G20
G22
G27
G30
E07
E19
E21
E27
> 2023 11 30 21 59 37.4327888  0 20                      
R10
R02
R12
R11
R01
R08
G04
G05
G07
G08
G09
G14
G20
G22
G27
G30
E07
E19
E21
E27
> 2023 11 30 21 59 38.4327888  0 20                      
R10
R02
R12
R11
R01
R08
G04
G05
G07
G08
G09
G14
G20
G22
G27
G30
E07
E19
E21
E27
> 2023 11 30 21 59 39.4327888  0 20                      
R10
R02
R12
R11
R01
R08
G04
G05
G07
G08
G09
G14
G20
G22
G27
G30
E07
E19
E21
E27
> 2023 11 30 21 59 40.4327889  0 20                      
R10
R02
R12
R11
R01
R08
G04
G05
G07
G08
G09
G14
G20
G22
G27
G30
E07
E19
E21
E27
> 2023 11 30 21 59 41.4327889  0 20                      
R10
R02
R12
R11
R01
R08
G04
G05
G07
G08
G09
G14
G20
G22
G27
G30
E07
E19
E21
E27
> 2023 11 30 21 59 42.4327889  0 20                      
R10
R02
R12
R11
R01
R08
G04
G05
G07
G08
G09
G14
G20
G22
G27
G30
E07
E19
E21
E27
> 2023 11 30 21 59 43.4327889  0 20                      
R10
R02
R12
R11
R01
R08
G04
G05
G07
G08
G09
G14
G20
G22
G27
G30
E07
E19
E21
E27
> 2023 11 30 21 59 44.4327889  0 19                      
R02
R12
R11
R01
R08
G04
G05
G07
G08
G09
G14
G20
G22
G27
G30
E07
E19
E21
E27
> 2023 11 30 21 59 45.4327889  0 19                      
R02
R12
R11
R01
R08
G04
G05
G07
G08
G09
G14
G20
G22
G27
G30
E07
E19
E21
E27
> 2023 11 30 21 59 46.4327889  0 19                      
R02
R12
R11
R01
R08
G04
G05
G07
G08
G09
G14
G20
G22
G27
G30
E07
E19
E21
E27
> 2023 11 30 21 59 47.4327890  0 19                      
R02
R12
R11
R01
R08
G04
G05
G07
G08
G09
G14
G20
G22
G27
G30
E07
E19
E21
E27
> 2023 11 30 21 59 48.4327890  0 19                      
R02
R12
R11
R01
R08
G04
G05
G07
G08
G09
G14
G20
G22
G27
G30
E07
E19
E21
E27
> 2023 11 30 21 59 49.4327890  0 19                      
R02
R12
R11
R01
R08
G04
G05
G07
G08
G09
G14
G20
G22
G27
G30
E07
E19
E21
E27
> 2023 11 30 21 59 50.4327890  0 19                      
R02
R12
R11
R01
R08
G04
G05
G07
G08
G09
G14
G20
G22
G27
G30
E07
E19
E21
E27
> 2023 11 30 21 59 51.4327890  0 19                      
R02
R12
R11
R01
R08
G04
G05
G07
G08
G09
G14
G20
G22
G27
G30
E07
E19
E21
E27
> 2023 11 30 21 59 52.4327890  0 19                      
R02
R12
R11
R01
R08
G04
G05
G07
G08
G09
G14
G20
G22
G27
G30
E07
E19
E21
E27
> 2023 11 30 21 59 53.4327891  0 19                      
R02
R12
R11
R01
R08
G04
G05
G07
G08
G09
G14
G20
G22
G27
G30
E07
E19
E21
E27
> 2023 11 30 21 59 54.4327891  0 19                      
R02
R12
R11
R01
R08
G04
G05
G07
G08
G09
G14
G20
G22
G27
G30
E07
E19
E21
E27
> 2023 11 30 21 59 55.4327891  0 19                      
R02
R12
R11
R01
R08
G04
G05
G07
G08
G09
G14
G20
G22
G27
G30
E07
E19
E21
E27
> 2023 11 30 21 59 56.4327891  0 19                      
R02
R12
R11
R01
R08
G04
G05
G07
G08
G09
G14
G20
G22
G27
G30
E07
E19
E21
E27
> 2023 11 30 21 59 57.4327891  0 19                      
R02
R12
R11
R01
R08
G04
G05
G07
G08
G09
G14
G20
G22
G27
G30
E07
E19
E21
E27
> 2023 11 30 21 59 58.4327891  0 19                      
R02
R12
R11
R01
R08
G04
G05
G07
G08
G09
G14
G20
G22
G27
G30
E07
E19
E21
E27
> 2023 11 30 21 59 59.4327891  0 19                      
R02
R12
R11
R01
R08
G04
G05
G07
G08
G09
G14
G20
G22
G27
G30
E07
E19
E21
E27
> 2023 11 30 22 00 00.4327891  0 19                      
R02
R12
R11
R01
R08
G04
G05
G07
G08
G09
G14
G20
G22
G27
G30
E07
E19
E21
E27
> 2023 11 30 22 00 01.4327891  0 19                      
R02
R12
R11
R01
R08
G04
G05
G07
G08
G09
G14
G20
G22
G27
G30
E07
E19
E21
E27
> 2023 11 30 22 00 02.4327891  0 19                      
R02
R12
R11
R01
R08
G04
G05
G07
G08
G09
G14
G20
G22
G27
G30
E07
E19
E21
E27
> 2023 11 30 22 00 03.4327891  0 19                      
R02
R12
R11
R01
R08
G04
G05
G07
G08
G09
G14
G20
G22
G27
G30
E07
E19
E21
E27
> 2023 11 30 22 00 04.4327891  0 19                      
R02
R12
R11
R01
R08
G04
G05
G07
G08
G09
G14
G20
G22
G27
G30
E07
E19
E21
E27
> 2023 11 30 22 00 05.4327891  0 19                      
R02
R12
R11
R01
R08
G04
G05
G07
G08
G09
G14
G20
G22
G27
G30
E07
E19
E21
E27
> 2023 11 30 22 00 06.4327891  0 19                      
R02
R12
R11
R01
R08
G04
G05
G07
G08
G09
G14
G20
G22
G27
G30
E07
E19
E21
E27
> 2023 11 30 22 00 07.4327891  0 19                      
R02
R12
R11
R01
R08
G04
G05
G07
G08
G09
G14
G20
G22
G27
G30
E07
E19
E21
E27
> 2023 11 30 22 00 08.4327891  0 19                      
R02
R12
R11
R01
R08
G04
G05
G07
G08
G09
G14
G20
G22
G27
G30
E07
E19
E21
E27
> 2023 11 30 22 00 09.4327891  0 19                      
R02
R12
R11
R01
R08
G04
G05
G07
G08
G09
G14
G20
G22
G27
G30
E07
E19
E21
E27
> 2023 11 30 22 00 10.4327891  0 19                      
R02
R12
R11
R01
R08
G04
G05
G07
G08
G09
G14
G20
G22
G27
G30
E07
E19
E21
E27
> 2023 11 30 22 00 11.4327891  0 19                      
R02
R12
R11
R01
R08
G04
G05
G07
G08
G09
G14
G20
G22
G27
G30
E07
E19
E21
E27
> 2023 11 30 22 00 12.4327891  0 19                      
R02
R12
R11
R01
R08
G04
G05
G07
G08
G09
G14
G20
G22
G27
G30
E07
E19
E21
E27
> 2023 11 30 22 00 13.4327891  0 19                      
R02
R12
R11
R01
R08
G04
G05
G07
G08
G09
G14
G20
G22
G27
G30
E07
E19
E21
E27
> 2023 11 30 22 00 14.4327891  0 19                      
R02
R12
R11
R01
R08
G04
G05
G07
G08
G09
G14
G20
G22
G27
G30
E07
E19
E21
E27
> 2023 11 30 22 00 15.4327891  0 19                      
R02
R12
R11
R01
R08
G04
G05
G07
G08
G09
G14
G20
G22
G27
G30
E07
E19
E21
E27
> 2023 11 30 22 00 16.4327891  0 19                      
R02
R12
R11
R01
R08
G04
G05
G07
G08
G09
G14
G20
G22
G27
G30
E07
E19
E21
E27
> 2023 11 30 22 00 17.4327891  0 19                      
R02
R12
R11
R01
R08
G04
G05
G07
G08
G09
G14
G20
G22
G27
G30
E07
E19
E21
E27
> 2023 11 30 22 00 18.4327891  0 19                      
R02
R12
R11
R01
R08
G04
G05
G07
G08
G09
G14
G20
G22
G27
G30
E07
E19
E21
E27
> 2023 11 30 22 00 19.4327891  0 19                      
R02
R12
R11
R01
R08
G04
G05
G07
G08
G09
G14
G20
G22
G27
G30
E07
E19
E21
E27
> 2023 11 30 22 00 20.4327891  0 19                      
R02
R12
R11
R01
R08
G04
G05
G07
G08
G09
G14
G20
G22
G27
G30
E07
E19
E21
E27
> 2023 11 30 22 00 21.4327891  0 20                      
R02
R13
R12
R11
R01
R08
G04
G05
G07
G08
G09
G14
G20
G22
G27
G30
E07
E19
E21
E27
> 2023 11 30 22 00 22.4327891  0 20                      
R02
R13
R12
R11
R01
R08
G04
G05
G07
G08
G09
G14
G20
G22
G27
G30
E07
E19
E21
E27
> 2023 11 30 22 00 23.4327891  0 20                      
R02
R13
R12
R11
R01
R08
G04
G05
G07
G08
G09
G14
G20
G22
G27
G30
E07
E19
E21
E27
> 2023 11 30 22 00 24.4327891  0 20                      
R02
R13
R12
R11
R01
R08
G04
G05
G07
G08
G09
G14
G20
G22
G27
G30
E07
E19
E21
E27
> 2023 11 30 22 00 25.4327891  0 20                      
R02
R13
R12
R11
R01
R08
G04
G05
G07
G08
G09
G14
G20
G22
G27
G30
E07
E19
E21
E27
> 2023 11 30 22 00 26.4327891  0 20                      
R02
R13
R12
R11
R01
R08
G04
G05
G07
G08
G09
G14
G20
G22
G27
G30
E07
E19
E21
E27
> 2023 11 30 22 00 27.4327892  0 20                      
R02
R13
R12
R11
R01
R08
G04
G05
G07
G08
G09
G14
G20
G22
G27
G30
E07
E19
E21
E27
> 2023 11 30 22 00 28.4327892  0 20                      
R02
R13
R12
R11
R01
R08
G04
G05
G07
G08
G09
G14
G20
G22
G27
G30
E07
E19
E21
E27
> 2023 11 30 22 00 29.4327892  0 20                      
R02
R13
R12
R11
R01
R08
G04
G05
G07
G08
G09
G14
G20
G22
G27
G30
E07
E19
E21
E27
> 2023 11 30 22 00 30.4327892  0 20                      
R02
R13
R12
R11
R01
R08
G04
G05
G07
G08
G09
G14
G20
G22
G27
G30
E07
E19
E21
E27
> 2023 11 30 22 00 31.4327892  0 20                      
R02
R13
R12
R11
R01
R08
G04
G05
G07
G08
G09
G14
G20
G22
G27
G30
E07
E19
E21
E27
> 2023 11 30 22 00 32.4327892  0 20                      
R02
R13
R12
R11
R01
R08
G04
G05
G07
G08
G09
G14
G20
G22
G27
G30
E07
E19
E21
E27
> 2023 11 30 22 00 33.4327892  0 20                      
R02
R13
R12
R11
R01
R08
G04
G05
G07
G08
G09
G14
G20
G22
G27
G30
E07
E19
E21
E27
> 2023 11 30 22 00 34.4327892  0 20                      
R02
R13
R12
R11
R01
R08
G04
G05
G07
G08
G09
G14
G20
G22
G27
G30
E07
E19
E21
E27
> 2023 11 30 22 00 35.4327891  0 20                      
R02
R13
R12
R11
R01
R08
G04
G05
G07
G08
G09
G14
G20
G22
G27
G30
E07
E19
E21
E27
> 2023 11 30 22 00 36.4327892  0 20                      
R02
R13
R12
R11
R01
R08
G04
G05
G07
G08
G09
G14
G20
G22
G27
G30
E07
E19
E21
E27
> 2023 11 30 22 00 37.4327892  0 20                      
R02
R13
R12
R11
R01
R08
G04
G05
G07
G08
G09
G14
G20
G22
G27
G30
E07
E19
E21
E27
> 2023 11 30 22 00 38.4327892  0 20                      
R02
R13
R12
R11
R01
R08
G04
G05
G07
G08
G09
G14
G20
G22
G27
G30
E07
E19
E21
E27
> 2023 11 30 22 00 39.4327892  0 20                      
R02
R13
R12
R11
R01
R08
G04
G05
G07
G08
G09
G14
G20
G22
G27
G30
E07
E19
E21
E27
> 2023 11 30 22 00 40.4327891  0 20                      
R02
R13
R12
R11
R01
R08
G04
G05
G07
G08
G09
G14
G20
G22
G27
G30
E07
E19
E21
E27
> 2023 11 30 22 00 41.4327891  0 20                      
R02
R13
R12
R11
R01
R08
G04
G05
G07
G08
G09
G14
G20
G22
G27
G30
E07
E19
E21
E27
> 2023 11 30 22 00 42.4327892  0 20                      
R02
R13
R12
R11
R01
R08
G04
G05
G07
G08
G09
G14
G20
G22
G27
G30
E07
E19
E21
E27
> 2023 11 30 22 00 43.4327892  0 20                      
R02
R13
R12
R11
R01
R08
G04
G05
G07
G08
G09
G14
G20
G22
G27
G30
E07
E19
E21
E27
> 2023 11 30 22 00 44.4327892  0 20                      
R02
R13
R12
R11
R01
R08
G04
G05
G07
G08
G09
G14
G20
G22
G27
G30
E07
E19
E21
E27
> 2023 11 30 22 00 45.4327892  0 20                      
R02
R13
R12
R11
R01
R08
G04
G05
G07
G08
G09
G14
G20
G22
G27
G30
E07
E19
E21
E27
> 2023 11 30 22 00 46.4327892  0 20                      
R02
R13
R12
R11
R01
R08
G04
G05
G07
G08
G09
G14
G20
G22
G27
G30
E07
E19
E21
E27
> 2023 11 30 22 00 47.4327892  0 20                      
R02
R13
R12
R11
R01
R08
G04
G05
G07
G08
G09
G14
G20
G22
G27
G30
E07
E19
E21
E27
> 2023 11 30 22 00 48.4327892  0 20                      
R02
R13
R12
R11
R01
R08
G04
G05
G07
G08
G09
G14
G20
G22
G27
G30
E07
E19
E21
E27
> 2023 11 30 22 00 49.4327892  0 20                      
R02
R13
R12
R11
R01
R08
G04
G05
G07
G08
G09
G14
G20
G22
G27
G30
E07
E19
E21
E27
> 2023 11 30 22 00 50.4327892  0 20                      
R02
R13
R12
R11
R01
R08
G04
G05
G07
G08
G09
G14
G20
G22
G27
G30
E07
E19
E21
E27
> 2023 11 30 22 00 51.4327892  0 20                      
R02
R13
R12
R11
R01
R08
G04
G05
G07
G08
G09
G14
G20
G22
G27
G30
E07
E19
E21
E27
> 2023 11 30 22 00 52.4327892  0 20                      
R02
R13
R12
R11
R01
R08
G04
G05
G07
G08
G09
G14
G20
G22
G27
G30
E07
E19
E21
E27
> 2023 11 30 22 00 53.4327892  0 20                      
R02
R13
R12
R11
R01
R08
G04
G05
G07
G08
G09
G14
G20
G22
G27
G30
E07
E19
E21
E27
> 2023 11 30 22 00 54.4327891  0 20                      
R02
R13
R12
R11
R01
R08
G04
G05
G07
G08
G09
G14
G20
G22
G27
G30
E07
E19
E21
E27
> 2023 11 30 22 00 55.4327891  0 20                      
R02
R13
R12
R11
R01
R08
G04
G05
G07
G08
G09
G14
G20
G22
G27
G30
E07
E19
E21
E27
> 2023 11 30 22 00 56.4327891  0 20                      
R02
R13
R12
R11
R01
R08
G04
G05
G07
G08
G09
G14
G20
G22
G27
G30
E07
E19
E21
E27
> 2023 11 30 22 00 57.4327891  0 20                      
R02
R13
R12
R11
R01
R08
G04
G05
G07
G08
G09
G14
G20
G22
G27
G30
E07
E19
E21
E27
> 2023 11 30 22 00 58.4327891  0 20                      
R02
R13
R12
R11
R01
R08
G04
G05
G07
G08
G09
G14
G20
G22
G27
G30
E07
E19
E21
E27
> 2023 11 30 22 00 59.4327891  0 20                      
R02
R13
R12
R11
R01
R08
G04
G05
G07
G08
G09
G14
G20
G22
G27
G30
E07
E19
E21
E27
> 2023 11 30 22 01 00.4327892  0 20                      
R02
R13
R12
R11
R01
R08
G04
G05
G07
G08
G09
G14
G20
G22
G27
G30
E07
E19
E21
E27
> 2023 11 30 22 01 01.4327891  0 20                      
R02
R13
R12
R11
R01
R08
G04
G05
G07
G08
G09
G14
G20
G22
G27
G30
E07
E19
E21
E27
> 2023 11 30 22 01 02.4327891  0 20                      
R02
R13
R12
R11
R01
R08
G04
G05
G07
G08
G09
G14
G20
G22
G27
G30
E07
E19
E21
E27
> 2023 11 30 22 01 03.4327891  0 20                      
R02
R13
R12
R11
R01
R08
G04
G05
G07
G08
G09
G14
G20
G22
G27
G30
E07
E19
E21
E27
> 2023 11 30 22 01 04.4327891  0 20                      
R02
R13
R12
R11
R01
R08
G04
G05
G07
G08
G09
G14
G20
G22
G27
G30
E07
E19
E21
E27
> 2023 11 30 22 01 05.4327892  0 20                      
R02
R13
R12
R11
R01
R08
G04
G05
G07
G08
G09
G14
G20
G22
G27
G30
E07
E19
E21
E27
> 2023 11 30 22 01 06.4327892  0 20                      
R02
R13
R12
R11
R01
R08
G04
G05
G07
G08
G09
G14
G20
G22
G27
G30
E07
E19
E21
E27
> 2023 11 30 22 01 07.4327892  0 20                      
R02
R13
R12
R11
R01
R08
G04
G05
G07
G08
G09
G14
G20
G22
G27
G30
E07
E19
E21
E27
> 2023 11 30 22 01 08.4327892  0 20                      
R02
R13
R12
R11
R01
R08
G04
G05
G07
G08
G09
G14
G20
G22
G27
G30
E07
E19
E21
E27
> 2023 11 30 22 01 09.4327892  0 20                      
R02
R13
R12
R11
R01
R08
G04
G05
G07
G08
G09
G14
G20
G22
G27
G30
E07
E19
E21
E27
> 2023 11 30 22 01 10.4327892  0 20                      
R02
R13
R12
R11
R01
R08
G04
G05
G07
G08
G09
G14
G20
G22
G27
G30
E07
E19
E21
E27
> 2023 11 30 22 01 11.4327892  0 20                      
R02
R13
R12
R11
R01
R08
G04
G05
G07
G08
G09
G14
G20
G22
G27
G30
E07
E19
E21
E27
> 2023 11 30 22 01 12.4327892  0 20                      
R02
R13
R12
R11
R01
R08
G04
G05
G07
G08
G09
G14
G20
G22
G27
G30
E07
E19
E21
E27
> 2023 11 30 22 01 13.4327892  0 20                      
R02
R13
R12
R11
R01
R08
G04
G05
G07
G08
G09
G14
G20
G22
G27
G30
E07
E19
E21
E27
> 2023 11 30 22 01 14.4327892  0 20                      
R02
R13
R12
R11
R01
R08
G04
G05
G07
G08
G09
G14
G20
G22
G27
G30
E07
E19
E21
E27
> 2023 11 30 22 01 15.4327892  0 20                      
R02
R13
R12
R11
R01
R08
G04
G05
G07
G08
G09
G14
G20
G22
G27
G30
E07
E19
E21
E27
> 2023 11 30 22 01 16.4327891  0 20                      
R02
R13
R12
R11
R01
R08
G04
G05
G07
G08
G09
G14
G20
G22
G27
G30
E07
E19
E21
E27
> 2023 11 30 22 01 17.4327891  0 20                      
R02
R13
R12
R11
R01
R08
G04
G05
G07
G08
G09
G14
G20
G22
G27
G30
E07
E19
E21
E27
> 2023 11 30 22 01 18.4327891  0 20                      
R02
R13
R12
R11
R01
R08
G04
G05
G07
G08
G09
G14
G20
G22
G27
G30
E07
E19
E21
E27
> 2023 11 30 22 01 19.4327891  0 20                      
R02
R13
R12
R11
R01
R08
G04
G05
G07
G08
G09
G14
G20
G22
G27
G30
E07
E19
E21
E27
> 2023 11 30 22 01 20.4327891  0 20                      
R02
R13
R12
R11
R01
R08
G04
G05
G07
G08
G09
G14
G20
G22
G27
G30
E07
E19
E21
E27
> 2023 11 30 22 01 21.4327891  0 19                      
R02
R12
R11
R01
R08
G04
G05
G07
G08
G09
G14
G20
G22
G27
G30
E07
E19
E21
E27
> 2023 11 30 22 01 22.4327891  0 19                      
R02
R12
R11
R01
R08
G04
G05
G07
G08
G09
G14
G20
G22
G27
G30
E07
E19
E21
E27
> 2023 11 30 22 01 23.4327893  0 19                      
R02
R12
R11
R01
R08
G04
G05
G07
G08
G09
G14
G20
G22
G27
G30
E07
E19
E21
E27
> 2023 11 30 22 01 24.4327893  0 19                      
R02
R12
R11
R01
R08
G04
G05
G07
G08
G09
G14
G20
G22
G27
G30
E07
E19
E21
E27
> 2023 11 30 22 01 25.4327893  0 19                      
R02
R12
R11
R01
R08
G04
G05
G07
G08
G09
G14
G20
G22
G27
G30
E07
E19
E21
E27
> 2023 11 30 22 01 26.4327893  0 19                      
R02
R12
R11
R01
R08
G04
G05
G07
G08
G09
G14
G20
G22
G27
G30
E07
E19
E21
E27
> 2023 11 30 22 01 27.4327893  0 19                      
R02
R12
R11
R01
R08
G04
G05
G07
G08
G09
G14
G20
G22
G27
G30
E07
E19
E21
E27
> 2023 11 30 22 01 28.4327893  0 19                      
R02
R12
R11
R01
R08
G04
G05
G07
G08
G09
G14
G20
G22
G27
G30
E07
E19
E21
E27
> 2023 11 30 22 01 29.4327893  0 19                      
R02
R12
R11
R01
R08
G04
G05
G07
G08
G09
G14
G20
G22
G27
G30
E07
E19
E21
E27
> 2023 11 30 22 01 30.4327893  0 19                      
R02
R12
R11
R01
R08
G04
G05
G07
G08
G09
G14
G20
G22
G27
G30
E07
E19
E21
E27
> 2023 11 30 22 01 31.4327894  0 19                      
R02
R12
R11
R01
R08
G04
G05
G07
G08
G09
G14
G20
G22
G27
G30
E07
E19
E21
E27
> 2023 11 30 22 01 32.4327894  0 19                      
R02
R12
R11
R01
R08
G04
G05
G07
G08
G09
G14
G20
G22
G27
G30
E07
E19
E21
E27
> 2023 11 30 22 01 33.4327894  0 19                      
R02
R12
R11
R01
R08
G04
G05
G07
G08
G09
G14
G20
G22
G27
G30
E07
E19
E21
E27
> 2023 11 30 22 01 34.4327894  0 19                      
R02
R12
R11
R01
R08
G04
G05
G07
G08
G09
G14
G20
G22
G27
G30
E07
E19
E21
E27
> 2023 11 30 22 01 35.4327893  0 19                      
R02
R12
R11
R01
R08
G04
G05
G07
G08
G09
G14
G20
G22
G27
G30
E07
E19
E21
E27
> 2023 11 30 22 01 36.4327893  0 19                      
R02
R12
R11
R01
R08
G04
G05
G07
G08
G09
G14
G20
G22
G27
G30
E07
E19
E21
E27
> 2023 11 30 22 01 37.4327893  0 19                      
R02
R12
R11
R01
R08
G04
G05
G07
G08
G09
G14
G20
G22
G27
G30
E07
E19
E21
E27
> 2023 11 30 22 01 38.4327894  0 19                      
R02
R12
R11
R01
R08
G04
G05
G07
G08
G09
G14
G20
G22
G27
G30
E07
E19
E21
E27
> 2023 11 30 22 01 39.4327893  0 19                      
R02
R12
R11
R01
R08
G04
G05
G07
G08
G09
G14
G20
G22
G27
G30
E07
E19
E21
E27
> 2023 11 30 22 01 40.4327893  0 19                      
R02
R12
R11
R01
R08
G04
G05
G07
G08
G09
G14
G20
G22
G27
G30
E07
E19
E21
E27
> 2023 11 30 22 01 41.4327893  0 19                      
R02
R12
R11
R01
R08
G04
G05
G07
G08
G09
G14
G20
G22
G27
G30
E07
E19
E21
E27
> 2023 11 30 22 01 42.4327893  0 19                      
R02
R12
R11
R01
R08
G04
G05
G07
G08
G09
G14
G20
G22
G27
G30
E07
E19
E21
E27
> 2023 11 30 22 01 43.4327893  0 19                      
R02
R12
R11
R01
R08
G04
G05
G07
G08
G09
G14
G20
G22
G27
G30
E07
E19
E21
E27
> 2023 11 30 22 01 44.4327893  0 19                      
R02
R12
R11
R01
R08
G04
G05
G07
G08
G09
G14
G20
G22
G27
G30
E07
E19
E21
E27
> 2023 11 30 22 01 45.4327893  0 19                      
R02
R12
R11
R01
R08
G04
G05
G07
G08
G09
G14
G20
G22
G27
G30
E07
E19
E21
E27
> 2023 11 30 22 01 46.4327893  0 19                      
R02
R12
R11
R01
R08
G04
G05
G07
G08
G09
G14
G20
G22
G27
G30
E07
E19
E21
E27
> 2023 11 30 22 01 47.4327893  0 19                      
R02
R12
R11
R01
R08
G04
G05
G07
G08
G09
G14
G20
G22
G27
G30
E07
E19
E21
E27
> 2023 11 30 22 01 48.4327893  0 19                      
R02
R12
R11
R01
R08
G04
G05
G07
G08
G09
G14
G20
G22
G27
G30
E07
E19
E21
E27
> 2023 11 30 22 01 49.4327893  0 19                      
R02
R12
R11
R01
R08
G04
G05
G07
G08
G09
G14
G20
G22
G27
G30
E07
E19
E21
E27
> 2023 11 30 22 01 50.4327893  0 19                      
R02
R12
R11
R01
R08
G04
G05
G07
G08
G09
G14
G20
G22
G27
G30
E07
E19
E21
E27
> 2023 11 30 22 01 51.4327894  0 19                      
R02
R12
R11
R01
R08
G04
G05
G07
G08
G09
G14
G20
G22
G27
G30
E07
E19
E21
E27
> 2023 11 30 22 01 52.4327894  0 19                      
R02
R12
R11
R01
R08
G04
G05
G07
G08
G09
G14
G20
G22
G27
G30
E07
E19
E21
E27
> 2023 11 30 22 01 53.4327894  0 19                      
R02
R12
R11
R01
R08
G04
G05
G07
G08
G09
G14
G20
G22
G27
G30
E07
E19
E21
E27
> 2023 11 30 22 01 54.4327894  0 19                      
R02
R12
R11
R01
R08
G04
G05
G07
G08
G09
G14
G20
G22
G27
G30
E07
E19
E21
E27
> 2023 11 30 22 01 55.4327893  0 19                      
R02
R12
R11
R01
R08
G04
G05
G07
G08
G09
G14
G20
G22
G27
G30
E07
E19
E21
E27
> 2023 11 30 22 01 56.4327893  0 20                      
R10
R02
R12
R11
R01
R08
G04
G05
G07
G08
G09
G14
G20
G22
G27
G30
E07
E19
E21
E27
> 2023 11 30 22 01 57.4327893  0 20                      
R10
R02
R12
R11
R01
R08
G04
G05
G07
G08
G09
G14
G20
G22
G27
G30
E07
E19
E21
E27
> 2023 11 30 22 01 58.4327894  0 21                      
R10
R02
R13
R12
R11
R01
R08
G04
G05
G07
G08
G09
G14
G20
G22
G27
G30
E07
E19
E21
E27
> 2023 11 30 22 01 59.4327894  0 21                      
R10
R02
R13
R12
R11
R01
R08
G04
G05
G07
G08
G09
G14
G20
G22
G27
G30
E07
E19
E21
E27
> 2023 11 30 22 02 00.4327894  0 21                      
R10
R02
R13
R12
R11
R01
R08
G04
G05
G07
G08
G09
G14
G20
G22
G27
G30
E07
E19
E21
E27
> 2023 11 30 22 02 01.4327893  0 21                      
R10
R02
R13
R12
R11
R01
R08
G04
G05
G07
G08
G09
G14
G20
G22
G27
G30
E07
E19
E21
E27
> 2023 11 30 22 02 02.4327894  0 21                      
R10
R02
R13
R12
R11
R01
R08
G04
G05
G07
G08
G09
G14
G20
G22
G27
G30
E07
E19
E21
E27
> 2023 11 30 22 02 03.4327894  0 21                      
R10
R02
R13
R12
R11
R01
R08
G04
G05
G07
G08
G09
G14
G20
G22
G27
G30
E07
E19
E21
E27
> 2023 11 30 22 02 04.4327894  0 21                      
R10
R02
R13
R12
R11
R01
R08
G04
G05
G07
G08
G09
G14
G20
G22
G27
G30
E07
E19
E21
E27
> 2023 11 30 22 02 05.4327894  0 22                      
R10
R02
R13
R12
R11
R01
R20
R08
G04
G05
G07
G08
G09
G14
G20
G22
G27
G30
E07
E19
E21
E27
> 2023 11 30 22 02 06.4327894  0 22                      
R10
R02
R13
R12
R11
R01
R20
R08
G04
G05
G07
G08
G09
G14
G20
G22
G27
G30
E07
E19
E21
E27
> 2023 11 30 22 02 07.4327894  0 22                      
R10
R02
R13
R12
R11
R01
R20
R08
G04
G05
G07
G08
G09
G14
G20
G22
G27
G30
E07
E19
E21
E27
> 2023 11 30 22 02 08.4327894  0 22                      
R10
R02
R13
R12
R11
R01
R20
R08
G04
G05
G07
G08
G09
G14
G20
G22
G27
G30
E07
E19
E21
E27
> 2023 11 30 22 02 09.4327895  0 22                      
R10
R02
R13
R12
R11
R01
R20
R08
G04
G05
G07
G08
G09
G14
G20
G22
G27
G30
E07
E19
E21
E27
> 2023 11 30 22 02 10.4327895  0 22                      
R10
R02
R13
R12
R11
R01
R20
R08
G04
G05
G07
G08
G09
G14
G20
G22
G27
G30
E07
E19
E21
E27
> 2023 11 30 22 02 11.4327895  0 22                      
R10
R02
R13
R12
R11
R01
R20
R08
G04
G05
G07
G08
G09
G14
G20
G22
G27
G30
E07
E19
E21
E27
> 2023 11 30 22 02 12.4327895  0 22                      
R10
R02
R13
R12
R11
R01
R20
R08
G04
G05
G07
G08
G09
G14
G20
G22
G27
G30
E07
E19
E21
E27
> 2023 11 30 22 02 13.4327895  0 22                      
R10
R02
R13
R12
R11
R01
R20
R08
G04
G05
G07
G08
G09
G14
G20
G22
G27
G30
E07
E19
E21
E27
> 2023 11 30 22 02 14.4327895  0 22                      
R10
R02
R13
R12
R11
R01
R20
R08
G04
G05
G07
G08
G09
G14
G20
G22
G27
G30
E07
E19
E21
E27
> 2023 11 30 22 02 15.4327895  0 22                      
R10
R02
R13
R12
R11
R01
R20
R08
G04
G05
G07
G08
G09
G14
G20
G22
G27
G30
E07
E19
E21
E27
> 2023 11 30 22 02 16.4327894  0 22                      
R10
R02
R13
R12
R11
R01
R20
R08
G04
G05
G07
G08
G09
G14
G20
G22
G27
G30
E07
E19
E21
E27
> 2023 11 30 22 02 17.4327894  0 21                      
R10
R02
R12
R11
R01
R20
R08
G04
G05
G07
G08
G09
G14
G20
G22
G27
G30
E07
E19
E21
E27
> 2023 11 30 22 02 18.4327894  0 21                      
R10
R02
R12
R11
R01
R20
R08
G04
G05
G07
G08
G09
G14
G20
G22
G27
G30
E07
E19
E21
E27
> 2023 11 30 22 02 19.4327894  0 21                      
R10
R02
R12
R11
R01
R20
R08
G04
G05
G07
G08
G09
G14
G20
G22
G27
G30
E07
E19
E21
E27
> 2023 11 30 22 02 20.4327894  0 21                      
R10
R02
R12
R11
R01
R20
R08
G04
G05
G07
G08
G09
G14
G20
G22
G27
G30
E07
E19
E21
E27
> 2023 11 30 22 02 21.4327894  0 21                      
R10
R02
R12
R11
R01
R20
R08
G04
G05
G07
G08
G09
G14
G20
G22
G27
G30
E07
E19
E21
E27
> 2023 11 30 22 02 22.4327894  0 21                      
R10
R02
R12
R11
R01
R20
R08
G04
G05
G07
G08
G09
G14
G20
G22
G27
G30
E07
E19
E21
E27
> 2023 11 30 22 02 23.4327896  0 21                      
R10
R02
R12
R11
R01
R20
R08
G04
G05
G07
G08
G09
G14
G20
G22
G27
G30
E07
E19
E21
E27
> 2023 11 30 22 02 24.4327896  0 21                      
R10
R02
R12
R11
R01
R20
R08
G04
G05
G07
G08
G09
G14
G20
G22
G27
G30
E07
E19
E21
E27
> 2023 11 30 22 02 25.4327896  0 22                      
R10
R02
R13
R12
R11
R01
R20
R08
G04
G05
G07
G08
G09
G14
G20
G22
G27
G30
E07
E19
E21
E27
> 2023 11 30 22 02 26.4327897  0 21                      
R10
R02
R13
R12
R11
R01
R08
G04
G05
G07
G08
G09
G14
G20
G22
G27
G30
E07
E19
E21
E27
> 2023 11 30 22 02 27.4327897  0 21                      
R10
R02
R13
R12
R11
R01
R08
G04
G05
G07
G08
G09
G14
G20
G22
G27
G30
E07
E19
E21
E27
> 2023 11 30 22 02 28.4327897  0 21                      
R10
R02
R13
R12
R11
R01
R08
G04
G05
G07
G08
G09
G14
G20
G22
G27
G30
E07
E19
E21
E27
> 2023 11 30 22 02 29.4327897  0 21                      
R10
R02
R13
R12
R11
R01
R08
G04
G05
G07
G08
G09
G14
G20
G22
G27
G30
E07
E19
E21
E27
> 2023 11 30 22 02 30.4327897  0 21                      
R10
R02
R13
R12
R11
R01
R08
G04
G05
G07
G08
G09
G14
G20
G22
G27
G30
E07
E19
E21
E27
> 2023 11 30 22 02 31.4327897  0 21                      
R10
R02
R13
R12
R11
R01
R08
G04
G05
G07
G08
G09
G14
G20
G22
G27
G30
E07
E19
E21
E27
> 2023 11 30 22 02 32.4327897  0 21                      
R10
R02
R13
R12
R11
R01
R08
G04
G05
G07
G08
G09
G14
G20
G22
G27
G30
E07
E19
E21
E27
> 2023 11 30 22 02 33.4327897  0 21                      
R10
R02
R13
R12
R11
R01
R08
G04
G05
G07
G08
G09
G14
G20
G22
G27
G30
E07
E19
E21
E27
> 2023 11 30 22 02 34.4327897  0 21                      
R10
R02
R13
R12
R11
R01
R08
G04
G05
G07
G08
G09
G14
G20
G22
G27
G30
E07
E19
E21
E27
> 2023 11 30 22 02 35.4327897  0 20                      
R02
R13
R12
R11
R01
R08
G04
G05
G07
G08
G09
G14
G20
G22
G27
G30
E07
E19
E21
E27
> 2023 11 30 22 02 36.4327897  0 20                      
R02
R13
R12
R11
R01
R08
G04
G05
G07
G08
G09
G14
G20
G22
G27
G30
E07
E19
E21
E27
> 2023 11 30 22 02 37.4327897  0 20                      
R02
R13
R12
R11
R01
R08
G04
G05
G07
G08
G09
G14
G20
G22
G27
G30
E07
E19
E21
E27
> 2023 11 30 22 02 38.4327897  0 20                      
R02
R13
R12
R11
R01
R08
G04
G05
G07
G08
G09
G14
G20
G22
G27
G30
E07
E19
E21
E27
> 2023 11 30 22 02 39.4327897  0 20                      
R02
R13
R12
R11
R01
R08
G04
G05
G07
G08
G09
G14
G20
G22
G27
G30
E07
E19
E21
E27
> 2023 11 30 22 02 40.4327897  0 20                      
R02
R13
R12
R11
R01
R08
G04
G05
G07
G08
G09
G14
G20
G22
G27
G30
E07
E19
E21
E27
> 2023 11 30 22 02 41.4327898  0 20                      
R02
R13
R12
R11
R01
R08
G04
G05
G07
G08
G09
G14
G20
G22
G27
G30
E07
E19
E21
E27
> 2023 11 30 22 02 42.4327898  0 20                      
R02
R13
R12
R11
R01
R08
G04
G05
G07
G08
G09
G14
G20
G22
G27
G30
E07
E19
E21
E27
> 2023 11 30 22 02 43.4327898  0 20                      
