NMEA,$GPGSV,3,1,11,04,25,132,28,05,10,319,15,07,66,344,28,08,36,097,31,1*6B,1701381316874
NMEA,$GPGSV,3,2,11,09,61,139,29,14,32,219,29,20,23,286,22,22,14,217,32,1*61,1701381316874
NMEA,$GPGSV,3,3,11,27,20,053,29,30,45,293,34,16,00,000,,1*54,1701381316874
NMEA,$GLGSV,3,1,09,74,07,046,15,66,37,324,26,76,46,262,35,75,54,014,30,1*72,1701381316874
NMEA,$GLGSV,3,2,09,65,74,216,25,72,23,160,28,77,04,240,,84,06,053,,1*75,1701381316874
NMEA,$GLGSV,3,3,09,85,00,000,,1*4C,1701381316875
NMEA,$GAGSV,2,1,06,07,17,135,18,19,58,313,23,21,66,217,31,27,55,046,26,7*7A,1701381316875
NMEA,$GAGSV,2,2,06,30,04,043,16,04,02,313,,7*75,1701381316875
NMEA,$PQGSV,1,1,0,0*43,1701381316875
NMEA,$PQGSV,1,1,0,0*43,1701381316875
NMEA,$GNGSA,A,3,04,05,07,08,09,14,20,22,27,30,,,1.0,0.6,0.7,1*37,1701381316877
NMEA,$GNGSA,A,3,65,66,72,75,76,,,,,,,,1.0,0.6,0.7,2*37,1701381316877
NMEA,$GNGSA,A,3,07,19,21,27,,,,,,,,,1.0,0.6,0.7,3*3A,1701381316877
NMEA,$GNVTG,,T,,M,0.0,N,0.0,K,A*3D,1701381316877
NMEA,$GNRMC,215516.00,A,3725.345973,N,12214.745114,W,0.0,,301123,15.0,E,A,V*55,1701381316878
NMEA,$GNGGA,215516.00,3725.345973,N,12214.745114,W,1,12,0.6,107.3,M,-28.0,M,,*49,1701381316878
NMEA,$GPGSV,3,1,11,04,25,132,29,05,10,319,14,07,66,344,31,08,36,097,30,1*62,1701381317874
NMEA,$GPGSV,3,2,11,09,61,139,22,14,32,219,32,20,23,286,25,22,14,217,31,1*64,1701381317875
NMEA,$GPGSV,3,3,11,27,20,053,28,30,45,293,34,16,00,000,,1*55,1701381317875
NMEA,$GLGSV,3,1,09,74,07,046,15,66,37,324,28,76,46,262,35,75,54,014,34,1*78,1701381317875
NMEA,$GLGSV,3,2,09,65,74,216,27,72,23,160,30,77,04,240,,84,06,053,,1*7E,1701381317875
NMEA,$GLGSV,3,3,09,85,00,000,,1*4C,1701381317875
NMEA,$GAGSV,2,1,06,07,17,135,17,19,58,313,25,21,66,217,30,27,55,046,30,7*75,1701381317875
NMEA,$GAGSV,2,2,06,30,04,043,16,04,02,313,,7*75,1701381317876
NMEA,$PQGSV,1,1,0,0*43,1701381317876
NMEA,$PQGSV,1,1,0,0*43,1701381317876
NMEA,$GNGSA,A,3,04,05,07,08,09,14,20,22,27,30,,,1.0,0.6,0.7,1*37,1701381317878
NMEA,$GNGSA,A,3,65,66,72,75,76,,,,,,,,1.0,0.6,0.7,2*37,1701381317878
NMEA,$GNGSA,A,3,07,19,21,27,,,,,,,,,1.0,0.6,0.7,3*3A,1701381317878
NMEA,$GNVTG,,T,,M,0.0,N,0.0,K,A*3D,1701381317878
NMEA,$GNRMC,215517.00,A,3725.345976,N,12214.745044,W,0.0,,301123,15.0,E,A,V*55,1701381317878
NMEA,$GNGGA,215517.00,3725.345976,N,12214.745044,W,1,12,0.6,107.2,M,-28.0,M,,*48,1701381317878
NMEA,$GPGSV,3,1,11,04,25,132,27,05,10,319,20,07,66,344,30,08,36,097,30,1*6A,1701381318874
NMEA,$GPGSV,3,2,11,09,61,139,22,14,32,219,34,20,23,286,22,22,14,217,34,1*60,1701381318875
NMEA,$GPGSV,3,3,11,27,20,053,30,30,45,293,30,16,00,000,,1*58,1701381318875
NMEA,$GLGSV,3,1,09,74,07,046,15,66,37,324,19,76,46,262,35,75,54,014,33,1*7D,1701381318875
NMEA,$GLGSV,3,2,09,65,74,216,25,72,23,160,29,77,04,240,,84,06,053,,1*74,1701381318875
NMEA,$GLGSV,3,3,09,85,00,000,,1*4C,1701381318875
NMEA,$GAGSV,2,1,06,07,17,135,22,19,58,313,25,21,66,217,28,27,55,046,30,7*7A,1701381318876
NMEA,$GAGSV,2,2,06,30,04,043,16,04,02,313,,7*75,1701381318876
NMEA,$PQGSV,1,1,0,0*43,1701381318876
NMEA,$PQGSV,1,1,0,0*43,1701381318877
NMEA,$GNGSA,A,3,04,05,07,08,09,14,20,22,27,30,,,1.0,0.6,0.7,1*37,1701381318881
NMEA,$GNGSA,A,3,65,66,72,75,76,,,,,,,,1.0,0.6,0.7,2*37,1701381318881
NMEA,$GNGSA,A,3,07,19,21,27,,,,,,,,,1.0,0.6,0.7,3*3A,1701381318881
NMEA,$GNVTG,,T,,M,0.0,N,0.0,K,A*3D,1701381318882
NMEA,$GNRMC,215518.00,A,3725.346026,N,12214.745029,W,0.0,,301123,15.0,E,A,V*5E,1701381318882
NMEA,$GNGGA,215518.00,3725.346026,N,12214.745029,W,1,12,0.6,107.5,M,-28.0,M,,*44,1701381318882
NMEA,$GPGSV,3,1,11,04,25,132,23,05,10,319,18,07,66,344,30,08,36,097,28,1*6C,1701381319881
NMEA,$GPGSV,3,2,11,09,61,139,23,14,32,219,29,20,23,286,28,22,14,217,33,1*60,1701381319881
NMEA,$GPGSV,3,3,11,27,20,053,28,30,45,293,30,16,00,000,,1*51,1701381319881
NMEA,$GLGSV,3,1,09,74,07,046,15,66,37,324,25,76,46,262,33,75,54,014,29,1*7F,1701381319882
NMEA,$GLGSV,3,2,09,65,74,216,24,72,23,160,24,77,04,240,,84,06,053,,1*78,1701381319882
NMEA,$GLGSV,3,3,09,85,00,000,,1*4C,1701381319883
NMEA,$GAGSV,2,1,06,07,17,135,20,19,58,313,27,21,66,217,28,27,55,046,30,7*7A,1701381319885
NMEA,$GAGSV,2,2,06,30,04,043,16,04,02,313,,7*75,1701381319886
NMEA,$PQGSV,1,1,0,0*43,1701381319888
NMEA,$PQGSV,1,1,0,0*43,1701381319889
NMEA,$GNGSA,A,3,04,05,07,08,09,14,20,22,27,30,,,1.0,0.6,0.7,1*37,1701381319894
NMEA,$GNGSA,A,3,65,66,72,75,76,,,,,,,,1.0,0.6,0.7,2*37,1701381319894
NMEA,$GNGSA,A,3,07,19,21,27,,,,,,,,,1.0,0.6,0.7,3*3A,1701381319895
NMEA,$GNVTG,141.5,T,141.5,M,1.2,N,2.3,K,A*3F,1701381319895
NMEA,$GNRMC,215519.00,A,3725.345972,N,12214.744789,W,1.2,141.5,301123,15.0,E,A,V*74,1701381319895
NMEA,$GNGGA,215519.00,3725.345972,N,12214.744789,W,1,12,0.6,107.5,M,-28.0,M,,*42,1701381319895
NMEA,$GPGSV,3,1,11,04,25,132,26,05,10,319,18,07,66,344,29,08,36,097,28,1*61,1701381320874
NMEA,$GPGSV,3,2,11,09,61,139,26,14,32,219,28,20,23,286,29,22,14,217,28,1*6F,1701381320874
NMEA,$GPGSV,3,3,11,27,20,053,29,30,45,293,30,16,00,000,,1*50,1701381320874
NMEA,$GLGSV,3,1,09,74,07,046,15,66,37,324,25,76,46,262,30,75,54,014,26,1*73,1701381320875
NMEA,$GLGSV,3,2,09,65,74,216,26,72,23,160,27,77,04,240,,84,06,053,,1*79,1701381320875
NMEA,$GLGSV,3,3,09,85,00,000,,1*4C,1701381320875
NMEA,$GAGSV,2,1,06,07,17,135,20,19,58,313,28,21,66,217,29,27,55,046,27,7*72,1701381320875
NMEA,$GAGSV,2,2,06,04,02,313,,30,04,043,,7*72,1701381320875
NMEA,$PQGSV,1,1,0,0*43,1701381320875
NMEA,$PQGSV,1,1,0,0*43,1701381320875
NMEA,$GNGSA,A,3,04,05,07,08,09,14,20,22,27,30,,,1.0,0.6,0.7,1*37,1701381320878
NMEA,$GNGSA,A,3,65,66,72,75,76,,,,,,,,1.0,0.6,0.7,2*37,1701381320878
NMEA,$GNGSA,A,3,07,19,21,27,,,,,,,,,1.0,0.6,0.7,3*3A,1701381320878
NMEA,$GNVTG,141.5,T,141.5,M,0.7,N,1.2,K,A*39,1701381320878
NMEA,$GNRMC,215520.00,A,3725.345906,N,12214.744466,W,0.7,141.5,301123,15.0,E,A,V*7B,1701381320878
NMEA,$GNGGA,215520.00,3725.345906,N,12214.744466,W,1,12,0.6,107.0,M,-28.0,M,,*4C,1701381320879
NMEA,$GPGSV,3,1,11,04,25,132,26,05,10,319,22,07,66,344,26,08,36,097,28,1*67,1701381321879
NMEA,$GPGSV,3,2,11,09,61,139,27,14,32,219,29,20,23,286,28,22,14,217,29,1*6F,1701381321880
NMEA,$GPGSV,3,3,11,27,20,053,27,30,45,293,31,16,00,000,,1*5F,1701381321880
NMEA,$GLGSV,3,1,09,74,07,046,15,66,37,324,26,76,46,262,31,75,54,014,27,1*70,1701381321880
NMEA,$GLGSV,3,2,09,65,74,216,26,72,23,160,24,77,04,240,,84,06,053,,1*7A,1701381321880
NMEA,$GLGSV,3,3,09,85,00,000,,1*4C,1701381321881
NMEA,$GAGSV,2,1,06,07,17,135,20,19,58,313,25,21,66,217,27,27,55,046,25,7*73,1701381321881
NMEA,$GAGSV,2,2,06,04,02,313,,30,04,043,,7*72,1701381321882
NMEA,$PQGSV,1,1,0,0*43,1701381321883
NMEA,$PQGSV,1,1,0,0*43,1701381321883
NMEA,$GNGSA,A,3,04,05,07,08,09,14,20,22,27,30,,,1.0,0.6,0.7,1*37,1701381321889
NMEA,$GNGSA,A,3,65,66,72,75,76,,,,,,,,1.0,0.6,0.7,2*37,1701381321889
NMEA,$GNGSA,A,3,07,19,21,27,,,,,,,,,1.0,0.6,0.7,3*3A,1701381321890
NMEA,$GNVTG,141.5,T,141.5,M,1.1,N,2.1,K,A*3E,1701381321890
NMEA,$GNRMC,215521.00,A,3725.345865,N,12214.744140,W,1.1,141.5,301123,15.0,E,A,V*78,1701381321890
NMEA,$GNGGA,215521.00,3725.345865,N,12214.744140,W,1,12,0.6,107.0,M,-28.0,M,,*48,1701381321890
NMEA,$GPGSV,3,1,11,04,25,132,26,05,10,319,20,07,66,344,27,08,36,097,31,1*6C,1701381322876
NMEA,$GPGSV,3,2,11,09,61,139,30,14,32,219,29,20,23,286,28,22,14,217,27,1*67,1701381322876
NMEA,$GPGSV,3,3,11,27,20,053,25,30,45,293,32,16,00,000,,1*5E,1701381322877
NMEA,$GLGSV,3,1,09,74,07,046,15,66,37,324,27,76,46,262,30,75,54,014,27,1*70,1701381322877
NMEA,$GLGSV,3,2,09,65,74,216,25,72,23,160,27,77,04,240,,84,06,053,,1*7A,1701381322877
NMEA,$GLGSV,3,3,09,85,00,000,,1*4C,1701381322877
NMEA,$GAGSV,2,1,06,07,17,135,17,19,58,313,23,21,66,217,24,27,55,046,30,7*76,1701381322877
NMEA,$GAGSV,2,2,06,04,02,313,,30,04,043,,7*72,1701381322877
NMEA,$PQGSV,1,1,0,0*43,1701381322877
NMEA,$PQGSV,1,1,0,0*43,1701381322878
NMEA,$GNGSA,A,3,04,05,07,08,09,14,20,22,27,30,,,1.0,0.6,0.7,1*37,1701381322882
NMEA,$GNGSA,A,3,65,66,72,75,76,,,,,,,,1.0,0.6,0.7,2*37,1701381322883
NMEA,$GNGSA,A,3,07,19,21,27,,,,,,,,,1.0,0.6,0.7,3*3A,1701381322883
NMEA,$GNVTG,132.7,T,132.7,M,3.7,N,6.8,K,A*37,1701381322883
NMEA,$GNRMC,215522.00,A,3725.345456,N,12214.743377,W,3.7,132.7,301123,15.0,E,A,V*74,1701381322884
NMEA,$GNGGA,215522.00,3725.345456,N,12214.743377,W,1,12,0.6,107.4,M,-28.0,M,,*42,1701381322884
NMEA,$GPGSV,3,1,11,04,25,132,24,05,10,319,20,07,66,344,30,08,36,097,30,1*69,1701381323875
NMEA,$GPGSV,3,2,11,09,61,139,31,14,32,219,28,20,23,286,28,22,14,217,25,1*65,1701381323876
NMEA,$GPGSV,3,3,11,27,20,053,27,30,45,293,34,16,00,000,,1*5A,1701381323877
NMEA,$GLGSV,3,1,09,74,07,046,15,66,37,324,27,76,46,262,28,75,54,014,31,1*7E,1701381323878
NMEA,$GLGSV,3,2,09,65,74,216,28,72,23,160,29,77,04,240,,84,06,053,,1*79,1701381323878
NMEA,$GLGSV,3,3,09,85,00,000,,1*4C,1701381323879
NMEA,$GAGSV,2,1,06,07,17,135,22,19,58,313,22,21,66,217,28,27,55,046,30,7*7D,1701381323879
NMEA,$GAGSV,2,2,06,04,02,313,,30,04,043,,7*72,1701381323879
NMEA,$PQGSV,1,1,0,0*43,1701381323879
NMEA,$PQGSV,1,1,0,0*43,1701381323880
NMEA,$GNGSA,A,3,04,05,07,08,09,14,20,22,27,30,,,1.0,0.6,0.7,1*37,1701381323884
NMEA,$GNGSA,A,3,65,66,72,75,76,,,,,,,,1.0,0.6,0.7,2*37,1701381323884
NMEA,$GNGSA,A,3,07,19,21,27,,,,,,,,,1.0,0.6,0.7,3*3A,1701381323884
NMEA,$GNVTG,131.8,T,131.8,M,2.5,N,4.6,K,A*38,1701381323885
NMEA,$GNRMC,215523.00,A,3725.344983,N,12214.742602,W,2.5,131.8,301123,15.0,E,A,V*78,1701381323885
NMEA,$GNGGA,215523.00,3725.344983,N,12214.742602,W,1,12,0.6,107.2,M,-28.0,M,,*47,1701381323885
NMEA,$GPGSV,3,1,11,04,25,132,26,05,10,319,21,07,66,344,30,08,36,097,28,1*63,1701381324880
NMEA,$GPGSV,3,2,11,09,61,139,28,14,32,219,25,20,23,286,30,22,14,217,26,1*6A,1701381324880
NMEA,$GPGSV,3,3,11,27,20,053,27,30,45,293,32,16,00,000,,1*5C,1701381324881
NMEA,$GLGSV,3,1,09,74,07,046,15,66,37,324,29,76,46,262,29,75,54,014,31,1*71,1701381324881
NMEA,$GLGSV,3,2,09,65,74,216,25,72,23,160,26,77,04,240,,84,06,053,,1*7B,1701381324882
NMEA,$GLGSV,3,3,09,85,00,000,,1*4C,1701381324883
NMEA,$GAGSV,2,1,06,07,17,135,22,19,58,313,25,21,66,217,28,27,55,046,30,7*7A,1701381324884
NMEA,$GAGSV,2,2,06,04,02,313,,30,04,043,,7*72,1701381324884
NMEA,$PQGSV,1,1,0,0*43,1701381324885
NMEA,$PQGSV,1,1,0,0*43,1701381324885
NMEA,$GNGSA,A,3,04,05,07,08,09,14,20,22,27,30,,,1.0,0.6,0.7,1*37,1701381324892
NMEA,$GNGSA,A,3,65,66,72,75,76,,,,,,,,1.0,0.6,0.7,2*37,1701381324895
NMEA,$GNGSA,A,3,07,19,21,27,,,,,,,,,1.0,0.6,0.7,3*3A,1701381324895
NMEA,$GNVTG,140.2,T,140.2,M,4.5,N,8.4,K,A*30,1701381324895
NMEA,$GNRMC,215524.00,A,3725.344128,N,12214.741740,W,4.5,140.2,301123,15.0,E,A,V*78,1701381324896
NMEA,$GNGGA,215524.00,3725.344128,N,12214.741740,W,1,12,0.6,107.3,M,-28.0,M,,*4C,1701381324896
NMEA,$GPGSV,3,1,11,04,25,132,22,05,10,319,21,07,66,344,29,08,36,097,31,1*67,1701381325878
NMEA,$GPGSV,3,2,11,09,61,139,28,14,32,219,23,20,23,286,29,22,14,217,23,1*61,1701381325878
NMEA,$GPGSV,3,3,11,27,20,053,28,30,45,293,33,16,00,000,,1*52,1701381325879
NMEA,$GLGSV,3,1,09,74,07,046,15,66,37,324,26,76,46,262,32,75,54,014,33,1*76,1701381325879
NMEA,$GLGSV,3,2,09,65,74,216,20,72,23,160,27,77,04,240,,84,06,053,,1*7F,1701381325880
NMEA,$GLGSV,3,3,09,85,00,000,,1*4C,1701381325880
NMEA,$GAGSV,2,1,06,07,17,135,18,19,58,313,28,21,66,217,24,27,55,046,30,7*72,1701381325880
NMEA,$GAGSV,2,2,06,04,02,313,,30,04,043,,7*72,1701381325881
NMEA,$PQGSV,1,1,0,0*43,1701381325881
NMEA,$PQGSV,1,1,0,0*43,1701381325881
NMEA,$GNGSA,A,3,04,05,07,08,09,14,20,22,27,30,,,1.0,0.6,0.7,1*37,1701381325888
NMEA,$GNGSA,A,3,65,66,72,75,76,,,,,,,,1.0,0.6,0.7,2*37,1701381325889
NMEA,$GNGSA,A,3,07,19,21,27,,,,,,,,,1.0,0.6,0.7,3*3A,1701381325889
NMEA,$GNVTG,143.8,T,143.8,M,2.0,N,3.8,K,A*34,1701381325889
NMEA,$GNRMC,215525.00,A,3725.343359,N,12214.741079,W,2.0,143.8,301123,15.0,E,A,V*7D,1701381325889
NMEA,$GNGGA,215525.00,3725.343359,N,12214.741079,W,1,12,0.6,106.7,M,-28.0,M,,*46,1701381325889
NMEA,$GPGSV,3,1,11,04,25,132,23,05,10,319,24,07,66,344,27,08,36,097,32,1*6E,1701381326877
NMEA,$GPGSV,3,2,11,09,61,139,26,14,32,219,23,20,23,286,29,22,14,217,19,1*66,1701381326877
NMEA,$GPGSV,3,3,11,27,20,053,24,30,45,293,31,16,00,000,,1*5C,1701381326878
NMEA,$GLGSV,2,1,08,66,37,324,27,76,46,262,29,75,54,014,31,65,74,216,21,1*7B,1701381326878
NMEA,$GLGSV,2,2,08,72,23,160,24,77,04,240,,84,06,053,,85,00,000,,1*76,1701381326879
NMEA,$GAGSV,2,1,06,07,17,135,20,19,58,313,25,21,66,217,24,27,55,046,30,7*74,1701381326879
NMEA,$GAGSV,2,2,06,04,02,313,,30,04,043,,7*72,1701381326879
NMEA,$PQGSV,1,1,0,0*43,1701381326880
NMEA,$PQGSV,1,1,0,0*43,1701381326882
NMEA,$GNGSA,A,3,04,05,07,08,09,14,20,22,27,30,,,1.0,0.6,0.7,1*37,1701381326888
NMEA,$GNGSA,A,3,65,66,72,75,76,,,,,,,,1.0,0.6,0.7,2*37,1701381326888
NMEA,$GNGSA,A,3,07,19,21,27,,,,,,,,,1.0,0.6,0.7,3*3A,1701381326889
NMEA,$GNVTG,143.7,T,143.7,M,2.6,N,4.9,K,A*34,1701381326889
NMEA,$GNRMC,215526.00,A,3725.342781,N,12214.740723,W,2.6,143.7,301123,15.0,E,A,V*7E,1701381326889
NMEA,$GNGGA,215526.00,3725.342781,N,12214.740723,W,1,12,0.6,107.3,M,-28.0,M,,*49,1701381326889
NMEA,$GPGSV,3,1,11,04,25,132,22,05,10,319,24,07,66,344,27,08,36,097,31,1*6C,1701381327874
NMEA,$GPGSV,3,2,11,09,61,139,30,14,32,219,22,20,23,286,29,22,14,217,22,1*68,1701381327874
NMEA,$GPGSV,3,3,11,27,20,053,28,30,45,293,33,16,00,000,,1*52,1701381327875
NMEA,$GLGSV,3,1,09,66,37,324,27,76,46,262,22,75,54,014,33,65,74,216,23,1*70,1701381327875
NMEA,$GLGSV,3,2,09,72,23,160,25,74,07,046,,77,04,240,,84,06,053,,1*7C,1701381327875
NMEA,$GLGSV,3,3,09,85,00,000,,1*4C,1701381327875
NMEA,$GAGSV,2,1,06,07,17,135,24,19,58,313,26,21,66,217,27,27,55,046,29,7*78,1701381327875
NMEA,$GAGSV,2,2,06,04,02,313,,30,04,043,,7*72,1701381327876
NMEA,$PQGSV,1,1,0,0*43,1701381327876
NMEA,$PQGSV,1,1,0,0*43,1701381327876
NMEA,$GNGSA,A,3,04,05,07,08,09,14,20,22,27,30,,,1.0,0.6,0.7,1*37,1701381327881
NMEA,$GNGSA,A,3,65,66,72,75,76,,,,,,,,1.0,0.6,0.7,2*37,1701381327882
NMEA,$GNGSA,A,3,07,19,21,27,,,,,,,,,1.0,0.6,0.7,3*3A,1701381327883
NMEA,$GNVTG,143.8,T,143.8,M,3.0,N,5.6,K,A*3D,1701381327883
NMEA,$GNRMC,215527.00,A,3725.342072,N,12214.740293,W,3.0,143.8,301123,15.0,E,A,V*72,1701381327883
NMEA,$GNGGA,215527.00,3725.342072,N,12214.740293,W,1,12,0.6,107.3,M,-28.0,M,,*4D,1701381327884
NMEA,$GPGSV,3,1,11,04,25,132,27,05,10,319,22,07,66,344,29,08,36,097,29,1*68,1701381328875
NMEA,$GPGSV,3,2,11,09,61,139,28,14,32,219,26,20,23,286,26,22,14,217,26,1*6E,1701381328876
NMEA,$GPGSV,3,3,11,27,20,053,24,30,45,293,29,16,00,000,,1*55,1701381328876
NMEA,$GLGSV,3,1,09,66,37,324,24,76,46,262,28,75,54,014,33,65,74,216,23,1*79,1701381328876
NMEA,$GLGSV,3,2,09,72,23,160,23,74,07,046,,77,04,240,,84,06,053,,1*7A,1701381328876
NMEA,$GLGSV,3,3,09,85,00,000,,1*4C,1701381328876
NMEA,$GAGSV,2,1,06,07,17,135,23,19,58,313,24,21,66,217,28,27,55,046,30,7*7A,1701381328877
NMEA,$GAGSV,2,2,06,04,02,313,,30,04,043,,7*72,1701381328877
NMEA,$PQGSV,1,1,0,0*43,1701381328877
NMEA,$PQGSV,1,1,0,0*43,1701381328877
NMEA,$GNGSA,A,3,04,05,07,08,09,14,20,22,27,30,,,1.0,0.6,0.7,1*37,1701381328881
NMEA,$GNGSA,A,3,65,66,72,75,76,,,,,,,,1.0,0.6,0.7,2*37,1701381328882
NMEA,$GNGSA,A,3,07,19,21,27,,,,,,,,,1.0,0.6,0.7,3*3A,1701381328883
NMEA,$GNVTG,147.3,T,147.3,M,3.1,N,5.7,K,A*3D,1701381328884
NMEA,$GNRMC,215528.00,A,3725.341295,N,12214.739833,W,3.1,147.3,301123,15.0,E,A,V*75,1701381328884
NMEA,$GNGGA,215528.00,3725.341295,N,12214.739833,W,1,12,0.6,107.6,M,-28.0,M,,*41,1701381328884
NMEA,$GPGSV,3,1,11,04,25,132,26,05,10,319,18,07,66,344,29,08,36,097,22,1*6B,1701381329879
NMEA,$GPGSV,3,2,11,09,61,139,31,14,32,219,25,20,23,286,25,22,14,217,28,1*68,1701381329879
NMEA,$GPGSV,3,3,11,27,20,053,22,30,45,293,28,16,00,000,,1*52,1701381329879
NMEA,$GLGSV,3,1,09,66,37,324,30,76,46,262,22,75,54,014,34,65,74,216,27,1*75,1701381329879
NMEA,$GLGSV,3,2,09,72,23,160,25,74,07,046,,77,04,240,,84,06,053,,1*7C,1701381329879
NMEA,$GLGSV,3,3,09,85,00,000,,1*4C,1701381329880
NMEA,$GAGSV,2,1,06,07,17,135,23,19,58,313,25,21,66,217,26,27,55,046,29,7*7D,1701381329880
NMEA,$GAGSV,2,2,06,04,02,313,,30,04,043,,7*72,1701381329880
NMEA,$PQGSV,1,1,0,0*43,1701381329880
NMEA,$PQGSV,1,1,0,0*43,1701381329880
NMEA,$GNGSA,A,3,04,05,07,08,09,14,20,22,27,30,,,1.0,0.6,0.7,1*37,1701381329883
NMEA,$GNGSA,A,3,65,66,72,75,76,,,,,,,,1.0,0.6,0.7,2*37,1701381329884
NMEA,$GNGSA,A,3,07,19,21,27,,,,,,,,,1.0,0.6,0.7,3*3A,1701381329884
NMEA,$GNVTG,137.0,T,137.0,M,4.6,N,8.6,K,A*31,1701381329884
NMEA,$GNRMC,215529.00,A,3725.340312,N,12214.739093,W,4.6,137.0,301123,15.0,E,A,V*7D,1701381329884
NMEA,$GNGGA,215529.00,3725.340312,N,12214.739093,W,1,12,0.6,107.8,M,-28.0,M,,*43,1701381329884
NMEA,$GPGSV,3,1,11,04,25,132,23,05,10,319,18,07,66,344,27,08,36,097,21,1*63,1701381330878
NMEA,$GPGSV,3,2,11,09,61,139,33,14,32,219,28,20,23,286,26,22,14,217,26,1*6A,1701381330879
NMEA,$GPGSV,3,3,11,27,20,053,20,30,45,293,29,16,00,000,,1*51,1701381330880
NMEA,$GLGSV,3,1,09,66,37,324,31,76,46,262,24,75,54,014,32,65,74,216,24,1*77,1701381330880
NMEA,$GLGSV,3,2,09,72,23,160,19,74,07,046,,77,04,240,,84,06,053,,1*73,1701381330880
NMEA,$GLGSV,3,3,09,85,00,000,,1*4C,1701381330881
NMEA,$GAGSV,2,1,06,07,17,135,20,19,58,313,26,21,66,217,25,27,55,046,29,7*7E,1701381330881
NMEA,$GAGSV,2,2,06,04,02,313,,30,04,043,,7*72,1701381330881
NMEA,$PQGSV,1,1,0,0*43,1701381330882
NMEA,$PQGSV,1,1,0,0*43,1701381330882
NMEA,$GNGSA,A,3,04,05,07,08,09,14,20,22,27,30,,,1.0,0.6,0.7,1*37,1701381330890
NMEA,$GNGSA,A,3,65,66,72,75,76,,,,,,,,1.0,0.6,0.7,2*37,1701381330891
NMEA,$GNGSA,A,3,07,19,21,27,,,,,,,,,1.0,0.6,0.7,3*3A,1701381330891
NMEA,$GNVTG,138.9,T,138.9,M,4.0,N,7.5,K,A*3B,1701381330891
NMEA,$GNRMC,215530.00,A,3725.339306,N,12214.738284,W,4.0,138.9,301123,15.0,E,A,V*7B,1701381330891
NMEA,$GNGGA,215530.00,3725.339306,N,12214.738284,W,1,12,0.6,107.9,M,-28.0,M,,*44,1701381330891
NMEA,$GPGSV,3,1,11,04,25,132,23,05,10,319,22,07,66,344,29,08,36,097,24,1*61,1701381331877
NMEA,$GPGSV,3,2,11,09,61,139,29,14,32,219,28,20,23,286,24,22,14,217,27,1*62,1701381331877
NMEA,$GPGSV,3,3,11,27,20,053,21,30,45,293,28,16,00,000,,1*51,1701381331878
NMEA,$GLGSV,3,1,09,66,37,324,30,76,46,262,26,75,54,014,31,65,74,216,23,1*70,1701381331878
NMEA,$GLGSV,3,2,09,72,23,160,18,74,07,046,,77,04,240,,84,06,053,,1*72,1701381331878
NMEA,$GLGSV,3,3,09,85,00,000,,1*4C,1701381331878
NMEA,$GAGSV,2,1,06,07,17,135,21,19,58,313,24,21,66,217,24,27,55,046,30,7*74,1701381331879
NMEA,$GAGSV,2,2,06,04,02,313,,30,04,043,,7*72,1701381331879
NMEA,$PQGSV,1,1,0,0*43,1701381331879
NMEA,$PQGSV,1,1,0,0*43,1701381331879
NMEA,$GNGSA,A,3,04,05,07,08,09,14,20,22,27,30,,,1.0,0.6,0.7,1*37,1701381331885
NMEA,$GNGSA,A,3,65,66,72,75,76,,,,,,,,1.0,0.6,0.7,2*37,1701381331885
NMEA,$GNGSA,A,3,07,19,21,27,,,,,,,,,1.0,0.6,0.7,3*3A,1701381331885
NMEA,$GNVTG,138.8,T,138.8,M,3.0,N,5.6,K,A*3D,1701381331885
NMEA,$GNRMC,215531.00,A,3725.338495,N,12214.737666,W,3.0,138.8,301123,15.0,E,A,V*77,1701381331885
NMEA,$GNGGA,215531.00,3725.338495,N,12214.737666,W,1,12,0.6,107.9,M,-28.0,M,,*4E,1701381331886
NMEA,$GPGSV,3,1,11,04,25,132,27,05,10,319,23,07,66,344,32,08,36,097,26,1*6C,1701381332879
NMEA,$GPGSV,3,2,11,09,61,139,29,14,32,219,26,20,23,286,25,22,14,217,28,1*62,1701381332879
NMEA,$GPGSV,3,3,11,27,20,053,21,30,45,293,30,16,00,000,,1*58,1701381332879
NMEA,$GLGSV,3,1,09,66,37,324,29,76,46,262,28,75,54,014,33,65,74,216,24,1*73,1701381332879
NMEA,$GLGSV,3,2,09,72,23,160,23,74,07,046,,77,04,240,,84,06,053,,1*7A,1701381332879
NMEA,$GLGSV,3,3,09,85,00,000,,1*4C,1701381332881
NMEA,$GAGSV,2,1,06,07,17,135,26,19,58,313,22,21,66,217,27,27,55,046,26,7*71,1701381332882
NMEA,$GAGSV,2,2,06,04,02,313,,30,04,043,,7*72,1701381332882
NMEA,$PQGSV,1,1,0,0*43,1701381332883
NMEA,$PQGSV,1,1,0,0*43,1701381332883
NMEA,$GNGSA,A,3,04,05,07,08,09,14,20,22,27,30,,,1.0,0.6,0.7,1*37,1701381332891
NMEA,$GNGSA,A,3,65,66,72,75,76,,,,,,,,1.0,0.6,0.7,2*37,1701381332892
NMEA,$GNGSA,A,3,07,19,21,27,,,,,,,,,1.0,0.6,0.7,3*3A,1701381332892
NMEA,$GNVTG,140.0,T,140.0,M,3.3,N,6.1,K,A*3A,1701381332892
NMEA,$GNRMC,215532.00,A,3725.337834,N,12214.737094,W,3.3,140.0,301123,15.0,E,A,V*73,1701381332893
NMEA,$GNGGA,215532.00,3725.337834,N,12214.737094,W,1,12,0.6,106.7,M,-28.0,M,,*41,1701381332893
NMEA,$GPGSV,3,1,11,04,25,132,24,05,10,319,21,07,66,344,31,08,36,097,26,1*6E,1701381333881
NMEA,$GPGSV,3,2,11,09,61,139,30,14,32,219,21,20,23,286,27,22,14,217,27,1*60,1701381333881
NMEA,$GPGSV,3,3,11,27,20,053,19,30,45,293,32,16,00,000,,1*51,1701381333881
NMEA,$GLGSV,3,1,09,66,37,324,28,76,46,262,27,75,54,014,27,65,74,216,27,1*7B,1701381333881
NMEA,$GLGSV,3,2,09,72,23,160,24,74,07,046,,77,04,240,,84,06,053,,1*7D,1701381333882
NMEA,$GLGSV,3,3,09,85,00,000,,1*4C,1701381333882
NMEA,$GAGSV,2,1,06,07,17,135,22,19,58,313,21,21,66,217,26,27,55,046,24,7*75,1701381333882
NMEA,$GAGSV,2,2,06,04,02,313,,30,04,043,,7*72,1701381333884
NMEA,$PQGSV,1,1,0,0*43,1701381333885
NMEA,$PQGSV,1,1,0,0*43,1701381333886
NMEA,$GNGSA,A,3,04,05,07,08,09,14,20,22,27,30,,,1.0,0.6,0.7,1*37,1701381333892
NMEA,$GNGSA,A,3,65,66,72,75,76,,,,,,,,1.0,0.6,0.7,2*37,1701381333892
NMEA,$GNGSA,A,3,07,19,21,27,,,,,,,,,1.0,0.6,0.7,3*3A,1701381333893
NMEA,$GNVTG,131.4,T,131.4,M,3.1,N,5.7,K,A*3D,1701381333893
NMEA,$GNRMC,215533.00,A,3725.337224,N,12214.736389,W,3.1,131.4,301123,15.0,E,A,V*77,1701381333893
NMEA,$GNGGA,215533.00,3725.337224,N,12214.736389,W,1,12,0.6,106.4,M,-28.0,M,,*46,1701381333893
NMEA,$GPGSV,3,1,11,04,25,132,25,05,10,319,21,07,66,344,24,08,36,097,25,1*68,1701381334877
NMEA,$GPGSV,3,2,11,09,61,139,33,14,32,219,30,20,23,286,28,22,14,217,30,1*6A,1701381334878
NMEA,$GPGSV,3,3,11,27,20,053,21,30,45,293,29,16,00,000,,1*50,1701381334878
NMEA,$GLGSV,3,1,09,66,37,324,24,76,46,262,26,75,54,014,26,65,74,216,25,1*75,1701381334879
NMEA,$GLGSV,3,2,09,72,23,160,26,74,07,046,,77,04,240,,84,06,053,,1*7F,1701381334879
NMEA,$GLGSV,3,3,09,85,00,000,,1*4C,1701381334880
NMEA,$GAGSV,2,1,06,07,17,135,18,19,58,313,21,21,66,217,30,27,55,046,24,7*7B,1701381334880
NMEA,$GAGSV,2,2,06,04,02,313,,30,04,043,,7*72,1701381334882
NMEA,$PQGSV,1,1,0,0*43,1701381334883
NMEA,$PQGSV,1,1,0,0*43,1701381334883
NMEA,$GNGSA,A,3,04,05,07,08,09,14,20,22,27,30,,,1.0,0.6,0.7,1*37,1701381334887
NMEA,$GNGSA,A,3,65,66,72,75,76,,,,,,,,1.0,0.6,0.7,2*37,1701381334887
NMEA,$GNGSA,A,3,07,19,21,27,,,,,,,,,1.0,0.6,0.7,3*3A,1701381334887
NMEA,$GNVTG,131.3,T,131.3,M,3.4,N,6.3,K,A*3F,1701381334887
NMEA,$GNRMC,215534.00,A,3725.336539,N,12214.735596,W,3.4,131.3,301123,15.0,E,A,V*73,1701381334887
NMEA,$GNGGA,215534.00,3725.336539,N,12214.735596,W,1,12,0.6,107.2,M,-28.0,M,,*47,1701381334888
NMEA,$GPGSV,3,1,11,04,25,132,19,05,10,319,21,07,66,344,22,08,36,097,24,1*60,1701381335880
NMEA,$GPGSV,3,2,11,09,61,139,30,14,32,219,28,20,23,286,23,22,14,217,26,1*6C,1701381335880
NMEA,$GPGSV,3,3,11,27,20,053,21,30,45,293,25,16,00,000,,1*5C,1701381335880
NMEA,$GLGSV,3,1,09,66,37,324,25,76,46,262,27,75,54,014,27,65,74,216,20,1*71,1701381335880
NMEA,$GLGSV,3,2,09,72,23,160,21,74,07,046,,77,04,240,,84,06,053,,1*78,1701381335880
NMEA,$GLGSV,3,3,09,85,00,000,,1*4C,1701381335880
NMEA,$GAGSV,2,1,06,07,17,135,22,19,58,313,20,21,66,217,28,27,55,046,22,7*7C,1701381335880
NMEA,$GAGSV,2,2,06,04,02,313,,30,04,043,,7*72,1701381335880
NMEA,$PQGSV,1,1,0,0*43,1701381335881
NMEA,$PQGSV,1,1,0,0*43,1701381335881
NMEA,$GNGSA,A,3,04,05,07,08,09,14,20,22,27,30,,,1.0,0.6,0.7,1*37,1701381335885
NMEA,$GNGSA,A,3,65,66,72,75,76,,,,,,,,1.0,0.6,0.7,2*37,1701381335885
NMEA,$GNGSA,A,3,07,19,21,27,,,,,,,,,1.0,0.6,0.7,3*3A,1701381335886
NMEA,$GNVTG,131.5,T,131.5,M,3.2,N,6.0,K,A*3A,1701381335886
NMEA,$GNRMC,215535.00,A,3725.335899,N,12214.734733,W,3.2,131.5,301123,15.0,E,A,V*7A,1701381335886
NMEA,$GNGGA,215535.00,3725.335899,N,12214.734733,W,1,12,0.6,107.1,M,-28.0,M,,*4D,1701381335886
NMEA,$GPGSV,3,1,11,04,25,132,22,05,10,319,17,07,66,344,22,08,36,097,19,1*63,1701381336877
NMEA,$GPGSV,3,2,11,09,61,139,34,14,32,219,28,20,23,286,23,22,14,217,23,1*6D,1701381336877
NMEA,$GPGSV,3,3,11,27,20,053,19,30,45,293,24,16,00,000,,1*56,1701381336878
NMEA,$GLGSV,3,1,09,66,37,324,26,76,46,262,23,75,54,014,26,65,74,216,27,1*70,1701381336878
NMEA,$GLGSV,3,2,09,72,23,160,25,74,07,046,,77,04,240,,84,06,053,,1*7C,1701381336878
NMEA,$GLGSV,3,3,09,85,00,000,,1*4C,1701381336879
NMEA,$GAGSV,2,1,06,07,17,135,21,19,58,313,17,21,66,217,28,27,55,046,23,7*7A,1701381336880
NMEA,$GAGSV,2,2,06,04,02,313,,30,04,043,,7*72,1701381336880
NMEA,$PQGSV,1,1,0,0*43,1701381336881
NMEA,$PQGSV,1,1,0,0*43,1701381336881
NMEA,$GNGSA,A,3,04,05,07,08,09,14,20,22,27,30,,,1.0,0.6,0.7,1*37,1701381336885
NMEA,$GNGSA,A,3,65,66,72,75,76,,,,,,,,1.0,0.6,0.7,2*37,1701381336885
NMEA,$GNGSA,A,3,07,19,21,27,,,,,,,,,1.0,0.6,0.7,3*3A,1701381336885
NMEA,$GNVTG,131.6,T,131.6,M,2.8,N,5.1,K,A*33,1701381336885
NMEA,$GNRMC,215536.00,A,3725.335368,N,12214.733874,W,2.8,131.6,301123,15.0,E,A,V*7F,1701381336885
NMEA,$GNGGA,215536.00,3725.335368,N,12214.733874,W,1,12,0.6,108.1,M,-28.0,M,,*4F,1701381336885
NMEA,$GPGSV,3,1,11,04,25,132,23,05,10,319,20,07,66,344,24,08,36,097,23,1*69,1701381337878
NMEA,$GPGSV,3,2,11,09,61,139,37,14,32,219,26,20,23,286,24,22,14,217,25,1*61,1701381337878
NMEA,$GPGSV,3,3,11,27,20,053,20,30,45,293,25,16,00,000,,1*5D,1701381337880
NMEA,$GLGSV,3,1,09,66,37,324,23,76,46,262,21,75,54,014,25,65,74,216,26,1*75,1701381337882
NMEA,$GLGSV,3,2,09,72,23,160,24,74,07,046,,77,04,240,,84,06,053,,1*7D,1701381337882
NMEA,$GLGSV,3,3,09,85,00,000,,1*4C,1701381337883
NMEA,$GAGSV,2,1,06,07,17,135,22,19,58,313,19,21,66,217,30,27,55,046,25,7*78,1701381337884
NMEA,$GAGSV,2,2,06,04,02,313,,30,04,043,,7*72,1701381337884
NMEA,$PQGSV,1,1,0,0*43,1701381337885
NMEA,$PQGSV,1,1,0,0*43,1701381337885
NMEA,$GNGSA,A,3,04,05,07,08,09,14,20,22,27,30,,,1.0,0.6,0.7,1*37,1701381337893
NMEA,$GNGSA,A,3,65,66,72,75,76,,,,,,,,1.0,0.6,0.7,2*37,1701381337894
NMEA,$GNGSA,A,3,07,19,21,27,,,,,,,,,1.0,0.6,0.7,3*3A,1701381337894
NMEA,$GNVTG,131.7,T,131.7,M,2.8,N,5.3,K,A*31,1701381337894
NMEA,$GNRMC,215537.00,A,3725.334817,N,12214.733142,W,2.8,131.7,301123,15.0,E,A,V*71,1701381337894
NMEA,$GNGGA,215537.00,3725.334817,N,12214.733142,W,1,12,0.6,107.8,M,-28.0,M,,*46,1701381337894
NMEA,$GPGSV,3,1,11,04,25,132,18,05,10,319,18,07,66,344,28,08,36,097,22,1*67,1701381338879
NMEA,$GPGSV,3,2,11,09,61,139,33,14,32,219,25,20,23,286,22,22,14,217,21,1*64,1701381338880
NMEA,$GPGSV,3,3,11,27,20,053,20,30,45,293,23,16,00,000,,1*5B,1701381338880
NMEA,$GLGSV,3,1,09,74,07,046,10,66,37,324,22,76,46,262,26,75,54,014,25,1*75,1701381338880
NMEA,$GLGSV,3,2,09,65,74,216,28,72,23,160,30,77,04,240,,84,06,053,,1*71,1701381338880
NMEA,$GLGSV,3,3,09,85,00,000,,1*4C,1701381338880
NMEA,$GAGSV,2,1,06,07,17,135,19,19,58,313,22,21,66,217,30,27,55,046,26,7*7B,1701381338880
NMEA,$GAGSV,2,2,06,04,02,313,,30,04,043,,7*72,1701381338880
NMEA,$PQGSV,1,1,0,0*43,1701381338880
NMEA,$PQGSV,1,1,0,0*43,1701381338880
NMEA,$GNGSA,A,3,04,05,07,08,09,14,20,22,27,30,,,0.9,0.6,0.7,1*3F,1701381338883
NMEA,$GNGSA,A,3,65,66,72,74,75,76,,,,,,,0.9,0.6,0.7,2*3C,1701381338884
NMEA,$GNGSA,A,3,07,19,21,27,,,,,,,,,0.9,0.6,0.7,3*32,1701381338884
NMEA,$GNVTG,131.8,T,131.8,M,2.3,N,4.2,K,A*3A,1701381338884
NMEA,$GNRMC,215538.00,A,3725.334311,N,12214.732596,W,2.3,131.8,301123,15.0,E,A,V*7B,1701381338884
NMEA,$GNGGA,215538.00,3725.334311,N,12214.732596,W,1,12,0.6,108.3,M,-28.0,M,,*4C,1701381338885
NMEA,$GPGSV,3,1,11,04,25,132,21,05,10,319,23,07,66,344,31,08,36,097,23,1*6C,1701381339876
NMEA,$GPGSV,3,2,11,09,61,139,33,14,32,219,25,20,23,286,27,22,14,217,24,1*64,1701381339876
NMEA,$GPGSV,3,3,11,27,20,053,21,30,45,293,27,16,00,000,,1*5E,1701381339877
NMEA,$GLGSV,3,1,09,74,07,046,10,66,37,324,18,76,46,262,26,75,54,014,31,1*79,1701381339877
NMEA,$GLGSV,3,2,09,65,74,216,29,72,23,160,27,77,04,240,,84,06,053,,1*76,1701381339877
NMEA,$GLGSV,3,3,09,85,00,000,,1*4C,1701381339877
NMEA,$GAGSV,2,1,06,07,17,135,24,19,58,313,25,21,66,217,28,27,55,046,25,7*78,1701381339877
NMEA,$GAGSV,2,2,06,04,02,313,,30,04,043,,7*72,1701381339878
NMEA,$PQGSV,1,1,0,0*43,1701381339878
NMEA,$PQGSV,1,1,0,0*43,1701381339879
NMEA,$GNGSA,A,3,04,05,07,08,09,14,20,22,27,30,,,0.9,0.6,0.7,1*3F,1701381339883
NMEA,$GNGSA,A,3,65,66,72,74,75,76,,,,,,,0.9,0.6,0.7,2*3C,1701381339884
NMEA,$GNGSA,A,3,07,19,21,27,,,,,,,,,0.9,0.6,0.7,3*32,1701381339884
NMEA,$GNVTG,139.6,T,139.6,M,3.4,N,6.4,K,A*38,1701381339884
NMEA,$GNRMC,215539.00,A,3725.333654,N,12214.732065,W,3.4,139.6,301123,15.0,E,A,V*70,1701381339884
NMEA,$GNGGA,215539.00,3725.333654,N,12214.732065,W,1,12,0.6,109.3,M,-28.0,M,,*46,1701381339884
NMEA,$GPGSV,3,1,11,04,25,132,21,05,10,319,22,07,66,344,31,08,36,097,19,1*64,1701381340877
NMEA,$GPGSV,3,2,11,09,61,139,30,14,32,219,24,20,23,286,24,22,14,217,20,1*61,1701381340878
NMEA,$GPGSV,3,3,11,27,20,053,21,30,45,293,27,16,00,000,,1*5E,1701381340878
NMEA,$GLGSV,3,1,09,74,07,046,10,66,37,324,22,76,46,262,28,75,54,014,31,1*7E,1701381340878
NMEA,$GLGSV,3,2,09,65,74,216,27,72,23,160,26,77,04,240,,84,06,053,,1*79,1701381340878
NMEA,$GLGSV,3,3,09,85,00,000,,1*4C,1701381340878
NMEA,$GAGSV,2,1,06,07,17,135,22,19,58,313,27,21,66,217,30,27,55,046,21,7*71,1701381340878
NMEA,$GAGSV,2,2,06,04,02,313,,30,04,043,,7*72,1701381340878
NMEA,$PQGSV,1,1,0,0*43,1701381340878
NMEA,$PQGSV,1,1,0,0*43,1701381340878
NMEA,$GNGSA,A,3,04,05,07,08,09,14,20,22,27,30,,,0.9,0.6,0.7,1*3F,1701381340880
NMEA,$GNGSA,A,3,65,66,72,74,75,76,,,,,,,0.9,0.6,0.7,2*3C,1701381340880
NMEA,$GNGSA,A,3,07,19,21,27,,,,,,,,,0.9,0.6,0.7,3*32,1701381340880
NMEA,$GNVTG,161.1,T,161.1,M,3.9,N,7.3,K,A*33,1701381340880
NMEA,$GNRMC,215540.00,A,3725.332728,N,12214.731463,W,3.9,161.1,301123,15.0,E,A,V*73,1701381340881
NMEA,$GNGGA,215540.00,3725.332728,N,12214.731463,W,1,12,0.6,109.1,M,-28.0,M,,*40,1701381340881
NMEA,$GPGSV,3,1,11,04,25,132,24,05,10,319,20,07,66,344,30,08,36,097,24,1*6C,1701381341877
NMEA,$GPGSV,3,2,11,09,61,139,30,14,32,219,21,20,23,286,26,22,14,217,18,1*6D,1701381341877
NMEA,$GPGSV,3,3,11,27,20,053,20,30,45,293,27,16,00,000,,1*5F,1701381341880
NMEA,$GLGSV,3,1,09,74,07,046,10,66,37,324,25,76,46,262,31,75,54,014,25,1*74,1701381341882
NMEA,$GLGSV,3,2,09,65,74,216,26,72,23,160,29,77,04,240,,84,06,053,,1*77,1701381341882
NMEA,$GLGSV,3,3,09,85,00,000,,1*4C,1701381341882
NMEA,$GAGSV,2,1,06,07,17,135,21,19,58,313,26,21,66,217,27,27,55,046,18,7*7F,1701381341882
NMEA,$GAGSV,2,2,06,04,02,313,,30,04,043,,7*72,1701381341882
NMEA,$PQGSV,1,1,0,0*43,1701381341883
NMEA,$PQGSV,1,1,0,0*43,1701381341883
NMEA,$GNGSA,A,3,04,05,07,08,09,14,20,22,27,30,,,0.9,0.6,0.7,1*3F,1701381341885
NMEA,$GNGSA,A,3,65,66,72,74,75,76,,,,,,,0.9,0.6,0.7,2*3C,1701381341886
NMEA,$GNGSA,A,3,07,19,21,27,,,,,,,,,0.9,0.6,0.7,3*32,1701381341886
NMEA,$GNVTG,145.4,T,145.4,M,5.1,N,9.4,K,A*34,1701381341886
NMEA,$GNRMC,215541.00,A,3725.331719,N,12214.730718,W,5.1,145.4,301123,15.0,E,A,V*70,1701381341887
NMEA,$GNGGA,215541.00,3725.331719,N,12214.730718,W,1,12,0.6,110.5,M,-28.0,M,,*42,1701381341887
NMEA,$GPGSV,3,1,11,04,25,132,20,05,10,319,19,07,66,344,30,08,36,097,25,1*63,1701381342873
NMEA,$GPGSV,3,2,11,09,61,139,31,14,32,219,23,20,23,286,28,22,14,217,20,1*6B,1701381342873
NMEA,$GPGSV,3,3,11,27,20,053,21,30,45,293,28,16,00,000,,1*51,1701381342874
NMEA,$GLGSV,3,1,09,74,07,046,10,66,37,324,29,76,46,262,29,75,54,014,22,1*76,1701381342874
NMEA,$GLGSV,3,2,09,65,74,216,27,72,23,160,30,77,04,240,,84,06,053,,1*7E,1701381342876
NMEA,$GLGSV,3,3,09,85,00,000,,1*4C,1701381342876
NMEA,$GAGSV,2,1,06,07,17,135,24,19,58,313,26,21,66,217,30,27,55,046,20,7*77,1701381342878
NMEA,$GAGSV,2,2,06,04,02,313,,30,04,043,,7*72,1701381342878
NMEA,$PQGSV,1,1,0,0*43,1701381342879
NMEA,$PQGSV,1,1,0,0*43,1701381342879
NMEA,$GNGSA,A,3,04,05,07,08,09,14,20,22,27,30,,,0.9,0.6,0.7,1*3F,1701381342884
NMEA,$GNGSA,A,3,65,66,72,74,75,76,,,,,,,0.9,0.6,0.7,2*3C,1701381342884
NMEA,$GNGSA,A,3,07,19,21,27,,,,,,,,,0.9,0.6,0.7,3*32,1701381342884
NMEA,$GNVTG,157.7,T,157.7,M,2.1,N,3.9,K,A*34,1701381342884
NMEA,$GNRMC,215542.00,A,3725.330956,N,12214.730235,W,2.1,157.7,301123,15.0,E,A,V*7A,1701381342884
NMEA,$GNGGA,215542.00,3725.330956,N,12214.730235,W,1,12,0.6,109.9,M,-28.0,M,,*4B,1701381342884
NMEA,$GPGSV,3,1,11,04,25,132,29,05,10,319,20,07,66,344,29,08,36,097,28,1*65,1701381343874
NMEA,$GPGSV,3,2,11,09,61,139,31,14,32,219,24,20,23,286,25,22,14,217,21,1*60,1701381343874
NMEA,$GPGSV,3,3,11,27,20,053,21,30,45,293,32,16,00,000,,1*5A,1701381343874
NMEA,$GLGSV,3,1,09,74,07,046,10,66,37,324,31,76,46,262,27,75,54,014,20,1*73,1701381343874
NMEA,$GLGSV,3,2,09,65,74,216,27,72,23,160,32,77,04,240,,84,06,053,,1*7C,1701381343874
NMEA,$GLGSV,3,3,09,85,00,000,,1*4C,1701381343875
NMEA,$GAGSV,2,1,06,07,17,135,27,19,58,313,26,21,66,217,31,27,55,046,22,7*77,1701381343875
NMEA,$GAGSV,2,2,06,04,02,313,,30,04,043,,7*72,1701381343875
NMEA,$PQGSV,1,1,0,0*43,1701381343875
NMEA,$PQGSV,1,1,0,0*43,1701381343875
NMEA,$GNGSA,A,3,04,05,07,08,09,14,20,22,27,30,,,0.9,0.6,0.7,1*3F,1701381343877
NMEA,$GNGSA,A,3,65,66,72,74,75,76,,,,,,,0.9,0.6,0.7,2*3C,1701381343877
NMEA,$GNGSA,A,3,07,19,21,27,,,,,,,,,0.9,0.6,0.7,3*32,1701381343877
NMEA,$GNVTG,144.1,T,144.1,M,3.2,N,6.0,K,A*3A,1701381343877
NMEA,$GNRMC,215543.00,A,3725.330384,N,12214.729794,W,3.2,144.1,301123,15.0,E,A,V*7E,1701381343878
NMEA,$GNGGA,215543.00,3725.330384,N,12214.729794,W,1,12,0.6,109.0,M,-28.0,M,,*40,1701381343878
NMEA,$GPGSV,3,1,11,04,25,132,29,05,10,319,19,07,66,344,30,08,36,097,27,1*68,1701381344877
NMEA,$GPGSV,3,2,11,09,61,139,29,14,32,219,24,20,23,286,25,22,14,217,18,1*63,1701381344880
NMEA,$GPGSV,3,3,11,27,20,053,25,30,45,293,30,16,00,000,,1*5C,1701381344880
NMEA,$GLGSV,3,1,09,74,07,046,10,66,37,324,34,76,46,262,29,75,54,014,27,1*7F,1701381344880
NMEA,$GLGSV,3,2,09,65,74,216,27,72,23,160,32,77,04,240,,84,06,053,,1*7C,1701381344884
NMEA,$GLGSV,3,3,09,85,00,000,,1*4C,1701381344886
NMEA,$GAGSV,2,1,06,07,17,135,26,19,58,313,27,21,66,217,28,27,55,046,29,7*74,1701381344887
NMEA,$GAGSV,2,2,06,04,02,313,,30,04,043,,7*72,1701381344887
NMEA,$PQGSV,1,1,0,0*43,1701381344887
NMEA,$PQGSV,1,1,0,0*43,1701381344888
NMEA,$GNGSA,A,3,04,05,07,08,09,14,20,22,27,30,,,1.0,0.6,0.7,1*37,1701381344889
NMEA,$GNGSA,A,3,65,66,72,75,76,,,,,,,,1.0,0.6,0.7,2*37,1701381344889
NMEA,$GNGSA,A,3,07,19,21,27,,,,,,,,,1.0,0.6,0.7,3*3A,1701381344890
NMEA,$GNVTG,143.4,T,143.4,M,1.8,N,3.4,K,A*33,1701381344890
NMEA,$GNRMC,215544.00,A,3725.329932,N,12214.729293,W,1.8,143.4,301123,15.0,E,A,V*7E,1701381344890
NMEA,$GNGGA,215544.00,3725.329932,N,12214.729293,W,1,12,0.6,107.2,M,-28.0,M,,*46,1701381344890
NMEA,$GPGSV,3,1,11,04,25,132,29,05,10,319,27,07,66,344,32,08,36,097,27,1*67,1701381345875
NMEA,$GPGSV,3,2,11,09,61,139,30,14,32,219,24,20,23,286,29,22,14,217,19,1*66,1701381345875
NMEA,$GPGSV,3,3,11,27,20,053,25,30,45,293,27,16,00,000,,1*5A,1701381345876
NMEA,$GLGSV,3,1,09,74,07,046,10,66,37,324,31,76,46,262,24,75,54,014,33,1*72,1701381345876
NMEA,$GLGSV,3,2,09,65,74,216,28,72,23,160,27,77,04,240,,84,06,053,,1*77,1701381345876
NMEA,$GLGSV,3,3,09,85,00,000,,1*4C,1701381345876
NMEA,$GAGSV,2,1,06,07,17,135,27,19,58,313,26,21,66,217,31,27,55,046,30,7*74,1701381345876
NMEA,$GAGSV,2,2,06,04,02,313,,30,04,043,,7*72,1701381345876
NMEA,$PQGSV,1,1,0,0*43,1701381345876
NMEA,$PQGSV,1,1,0,0*43,1701381345877
NMEA,$GNGSA,A,3,04,05,07,08,09,14,20,22,27,30,,,1.0,0.6,0.7,1*37,1701381345883
NMEA,$GNGSA,A,3,65,66,72,75,76,,,,,,,,1.0,0.6,0.7,2*37,1701381345884
NMEA,$GNGSA,A,3,07,19,21,27,,,,,,,,,1.0,0.6,0.7,3*3A,1701381345884
NMEA,$GNVTG,166.3,T,166.3,M,4.0,N,7.5,K,A*3B,1701381345884
NMEA,$GNRMC,215545.00,A,3725.329206,N,12214.729057,W,4.0,166.3,301123,15.0,E,A,V*74,1701381345884
NMEA,$GNGGA,215545.00,3725.329206,N,12214.729057,W,1,12,0.6,106.6,M,-28.0,M,,*44,1701381345884
NMEA,$GPGSV,3,1,11,04,25,132,29,05,10,319,24,07,66,344,31,08,36,097,24,1*64,1701381346879
NMEA,$GPGSV,3,2,11,09,61,139,29,14,32,219,19,20,23,286,28,22,14,217,20,1*6B,1701381346879
NMEA,$GPGSV,3,3,11,27,20,053,26,30,45,293,29,16,00,000,,1*57,1701381346879
NMEA,$GLGSV,3,1,09,74,07,046,10,66,37,324,29,76,46,262,27,75,54,014,33,1*78,1701381346879
NMEA,$GLGSV,3,2,09,65,74,216,27,72,23,160,28,77,04,240,,84,06,053,,1*77,1701381346880
NMEA,$GLGSV,3,3,09,85,00,000,,1*4C,1701381346880
NMEA,$GAGSV,2,1,06,07,17,135,26,19,58,313,27,21,66,217,26,27,55,046,31,7*73,1701381346880
NMEA,$GAGSV,2,2,06,04,02,313,,30,04,043,,7*72,1701381346881
NMEA,$PQGSV,1,1,0,0*43,1701381346881
NMEA,$PQGSV,1,1,0,0*43,1701381346881
NMEA,$GNGSA,A,3,04,05,07,08,09,14,20,22,27,30,,,1.0,0.6,0.7,1*37,1701381346887
NMEA,$GNGSA,A,3,65,66,72,75,76,,,,,,,,1.0,0.6,0.7,2*37,1701381346887
NMEA,$GNGSA,A,3,07,19,21,27,,,,,,,,,1.0,0.6,0.7,3*3A,1701381346887
NMEA,$GNVTG,185.5,T,185.5,M,4.5,N,8.4,K,A*30,1701381346887
NMEA,$GNRMC,215546.00,A,3725.328065,N,12214.729085,W,4.5,185.5,301123,15.0,E,A,V*70,1701381346888
NMEA,$GNGGA,215546.00,3725.328065,N,12214.729085,W,1,12,0.6,106.5,M,-28.0,M,,*4D,1701381346888
NMEA,$GPGSV,3,1,11,04,25,132,28,05,10,319,24,07,66,344,32,08,36,097,23,1*61,1701381347879
NMEA,$GPGSV,3,2,11,09,61,139,30,14,32,219,26,20,23,286,27,22,14,217,22,1*62,1701381347880
NMEA,$GPGSV,3,3,11,27,20,053,27,30,45,293,30,16,00,000,,1*5E,1701381347880
NMEA,$GLGSV,3,1,09,74,07,046,10,66,37,324,29,76,46,262,25,75,54,014,33,1*7A,1701381347880
NMEA,$GLGSV,3,2,09,65,74,216,25,72,23,160,30,77,04,240,,84,06,053,,1*7C,1701381347880
NMEA,$GLGSV,3,3,09,85,00,000,,1*4C,1701381347880
NMEA,$GAGSV,2,1,06,07,17,135,26,19,58,313,27,21,66,217,29,27,55,046,31,7*7C,1701381347881
NMEA,$GAGSV,2,2,06,04,02,313,,30,04,043,,7*72,1701381347881
NMEA,$PQGSV,1,1,0,0*43,1701381347881
NMEA,$PQGSV,1,1,0,0*43,1701381347881
NMEA,$GNGSA,A,3,04,05,07,08,09,14,20,22,27,30,,,1.0,0.6,0.7,1*37,1701381347883
NMEA,$GNGSA,A,3,65,66,72,75,76,,,,,,,,1.0,0.6,0.7,2*37,1701381347884
NMEA,$GNGSA,A,3,07,19,21,27,,,,,,,,,1.0,0.6,0.7,3*3A,1701381347884
NMEA,$GNVTG,182.9,T,182.9,M,3.0,N,5.5,K,A*3E,1701381347884
NMEA,$GNRMC,215547.00,A,3725.327189,N,12214.729242,W,3.0,182.9,301123,15.0,E,A,V*7D,1701381347884
NMEA,$GNGGA,215547.00,3725.327189,N,12214.729242,W,1,12,0.6,106.3,M,-28.0,M,,*4F,1701381347884
NMEA,$GPGSV,3,1,11,04,25,132,30,05,10,319,19,07,66,344,32,08,36,097,26,1*63,1701381348878
NMEA,$GPGSV,3,2,11,09,61,139,29,14,32,219,24,20,23,286,22,22,14,217,25,1*6A,1701381348878
NMEA,$GPGSV,3,3,11,27,20,053,26,30,45,293,28,16,00,000,,1*56,1701381348878
NMEA,$GLGSV,3,1,09,74,07,046,10,66,37,324,30,76,46,262,30,75,54,014,34,1*71,1701381348878
NMEA,$GLGSV,3,2,09,65,74,216,27,72,23,160,30,77,04,240,,84,06,053,,1*7E,1701381348878
NMEA,$GLGSV,3,3,09,85,00,000,,1*4C,1701381348879
NMEA,$GAGSV,2,1,06,07,17,135,26,19,58,313,28,21,66,217,30,27,55,046,29,7*72,1701381348879
NMEA,$GAGSV,2,2,06,04,02,313,,30,04,043,,7*72,1701381348879
NMEA,$PQGSV,1,1,0,0*43,1701381348879
NMEA,$PQGSV,1,1,0,0*43,1701381348879
NMEA,$GNGSA,A,3,04,05,07,08,09,14,20,22,27,30,,,1.0,0.6,0.7,1*37,1701381348882
NMEA,$GNGSA,A,3,65,66,72,75,76,,,,,,,,1.0,0.6,0.7,2*37,1701381348882
NMEA,$GNGSA,A,3,07,19,21,27,,,,,,,,,1.0,0.6,0.7,3*3A,1701381348883
NMEA,$GNVTG,168.9,T,168.9,M,3.2,N,6.0,K,A*3A,1701381348883
NMEA,$GNRMC,215548.00,A,3725.326512,N,12214.729218,W,3.2,168.9,301123,15.0,E,A,V*7C,1701381348883
NMEA,$GNGGA,215548.00,3725.326512,N,12214.729218,W,1,12,0.6,106.1,M,-28.0,M,,*4A,1701381348883
NMEA,$GPGSV,3,1,11,04,25,132,26,05,10,319,19,07,66,344,33,08,36,097,28,1*6B,1701381349875
NMEA,$GPGSV,3,2,11,09,61,139,30,14,32,219,24,20,23,286,23,22,14,217,26,1*60,1701381349875
NMEA,$GPGSV,3,3,11,27,20,053,26,30,45,293,29,16,00,000,,1*57,1701381349876
NMEA,$GLGSV,3,1,09,74,07,046,10,66,37,324,31,76,46,262,25,75,54,014,34,1*74,1701381349876
NMEA,$GLGSV,3,2,09,65,74,216,31,72,23,160,32,77,04,240,,84,06,053,,1*7B,1701381349876
NMEA,$GLGSV,3,3,09,85,00,000,,1*4C,1701381349877
NMEA,$GAGSV,2,1,06,07,17,135,25,19,58,313,27,21,66,217,30,27,55,046,27,7*70,1701381349877
NMEA,$GAGSV,2,2,06,04,02,313,,30,04,043,,7*72,1701381349877
NMEA,$PQGSV,1,1,0,0*43,1701381349877
NMEA,$PQGSV,1,1,0,0*43,1701381349878
NMEA,$GNGSA,A,3,04,05,07,08,09,14,20,22,27,30,,,1.0,0.6,0.7,1*37,1701381349884
NMEA,$GNGSA,A,3,65,66,72,75,76,,,,,,,,1.0,0.6,0.7,2*37,1701381349885
NMEA,$GNGSA,A,3,07,19,21,27,,,,,,,,,1.0,0.6,0.7,3*3A,1701381349885
NMEA,$GNVTG,168.6,T,168.6,M,3.4,N,6.2,K,A*3E,1701381349885
NMEA,$GNRMC,215549.00,A,3725.325880,N,12214.728805,W,3.4,168.6,301123,15.0,E,A,V*76,1701381349885
NMEA,$GNGGA,215549.00,3725.325880,N,12214.728805,W,1,12,0.6,106.2,M,-28.0,M,,*4A,1701381349886
NMEA,$GPGSV,3,1,11,04,25,132,21,05,10,319,17,07,66,344,31,08,36,097,31,1*68,1701381350880
NMEA,$GPGSV,3,2,11,09,61,139,29,14,32,219,23,20,23,286,28,22,14,217,26,1*64,1701381350880
NMEA,$GPGSV,3,3,11,27,20,053,20,30,45,293,29,16,00,000,,1*51,1701381350880
NMEA,$GLGSV,3,1,09,74,07,046,10,66,37,324,34,76,46,262,24,75,54,014,33,1*77,1701381350881
NMEA,$GLGSV,3,2,09,65,74,216,27,72,23,160,29,77,04,240,,84,06,053,,1*76,1701381350885
NMEA,$GLGSV,3,3,09,85,00,000,,1*4C,1701381350886
NMEA,$GAGSV,2,1,06,07,17,135,18,19,58,313,28,21,66,217,28,27,55,046,26,7*79,1701381350886
NMEA,$GAGSV,2,2,06,04,02,313,,30,04,043,,7*72,1701381350886
NMEA,$PQGSV,1,1,0,0*43,1701381350886
NMEA,$PQGSV,1,1,0,0*43,1701381350887
NMEA,$GNGSA,A,3,04,05,07,08,09,14,20,22,27,30,,,1.0,0.6,0.7,1*37,1701381350891
NMEA,$GNGSA,A,3,65,66,72,75,76,,,,,,,,1.0,0.6,0.7,2*37,1701381350891
NMEA,$GNGSA,A,3,07,19,21,27,,,,,,,,,1.0,0.6,0.7,3*3A,1701381350891
NMEA,$GNVTG,136.2,T,136.2,M,3.2,N,5.9,K,A*30,1701381350891
NMEA,$GNRMC,215550.00,A,3725.325378,N,12214.728039,W,3.2,136.2,301123,15.0,E,A,V*7C,1701381350891
NMEA,$GNGGA,215550.00,3725.325378,N,12214.728039,W,1,12,0.6,106.2,M,-28.0,M,,*49,1701381350891
NMEA,$GPGSV,3,1,11,04,25,132,25,05,10,319,17,07,66,344,31,08,36,097,27,1*6B,1701381351876
NMEA,$GPGSV,3,2,11,09,61,139,34,14,32,219,24,20,23,286,27,22,14,217,28,1*6E,1701381351876
NMEA,$GPGSV,3,3,11,27,20,053,26,30,45,293,30,16,00,000,,1*5F,1701381351877
NMEA,$GLGSV,3,1,09,74,07,046,10,66,37,324,32,76,46,262,28,75,54,014,30,1*7E,1701381351877
NMEA,$GLGSV,3,2,09,65,74,216,27,72,23,160,27,77,04,240,,84,06,053,,1*78,1701381351878
NMEA,$GLGSV,3,3,09,85,00,000,,1*4C,1701381351878
NMEA,$GAGSV,2,1,06,07,17,135,22,19,58,313,25,21,66,217,29,27,55,046,25,7*7F,1701381351878
NMEA,$GAGSV,2,2,06,04,02,313,,30,04,043,,7*72,1701381351878
NMEA,$PQGSV,1,1,0,0*43,1701381351879
NMEA,$PQGSV,1,1,0,0*43,1701381351879
NMEA,$GNGSA,A,3,04,05,07,08,09,14,20,22,27,30,,,1.0,0.6,0.7,1*37,1701381351882
NMEA,$GNGSA,A,3,65,66,72,75,76,,,,,,,,1.0,0.6,0.7,2*37,1701381351883
NMEA,$GNGSA,A,3,07,19,21,27,,,,,,,,,1.0,0.6,0.7,3*3A,1701381351883
NMEA,$GNVTG,135.7,T,135.7,M,3.5,N,6.5,K,A*38,1701381351883
NMEA,$GNRMC,215551.00,A,3725.325032,N,12214.727011,W,3.5,135.7,301123,15.0,E,A,V*74,1701381351884
NMEA,$GNGGA,215551.00,3725.325032,N,12214.727011,W,1,12,0.6,106.7,M,-28.0,M,,*45,1701381351884
NMEA,$GPGSV,3,1,11,04,25,132,25,05,10,319,17,07,66,344,31,08,36,097,23,1*6F,1701381352877
NMEA,$GPGSV,3,2,11,09,61,139,36,14,32,219,24,20,23,286,25,22,14,217,29,1*6F,1701381352879
NMEA,$GPGSV,3,3,11,27,20,053,20,30,45,293,31,16,00,000,,1*58,1701381352883
NMEA,$GLGSV,3,1,09,74,07,046,10,66,37,324,33,76,46,262,31,75,54,014,27,1*71,1701381352883
NMEA,$GLGSV,3,2,09,65,74,216,29,72,23,160,27,77,04,240,,84,06,053,,1*76,1701381352883
NMEA,$GLGSV,3,3,09,85,00,000,,1*4C,1701381352883
NMEA,$GAGSV,2,1,06,07,17,135,21,19,58,313,24,21,66,217,32,27,55,046,26,7*74,1701381352884
NMEA,$GAGSV,2,2,06,04,02,313,,30,04,043,,7*72,1701381352884
NMEA,$PQGSV,1,1,0,0*43,1701381352884
NMEA,$PQGSV,1,1,0,0*43,1701381352884
NMEA,$GNGSA,A,3,04,05,07,08,09,14,20,22,27,30,,,1.0,0.6,0.7,1*37,1701381352888
NMEA,$GNGSA,A,3,65,66,72,75,76,,,,,,,,1.0,0.6,0.7,2*37,1701381352888
NMEA,$GNGSA,A,3,07,19,21,27,,,,,,,,,1.0,0.6,0.7,3*3A,1701381352889
NMEA,$GNVTG,91.5,T,91.5,M,1.7,N,3.2,K,A*3A,1701381352889
NMEA,$GNRMC,215552.00,A,3725.325002,N,12214.726138,W,1.7,91.5,301123,15.0,E,A,V*42,1701381352889
NMEA,$GNGGA,215552.00,3725.325002,N,12214.726138,W,1,12,0.6,107.4,M,-28.0,M,,*4C,1701381352889
NMEA,$GPGSV,3,1,11,04,25,132,23,05,10,319,17,07,66,344,31,08,36,097,23,1*69,1701381353877
NMEA,$GPGSV,3,2,11,09,61,139,33,14,32,219,27,20,23,286,29,22,14,217,30,1*6D,1701381353877
NMEA,$GPGSV,3,3,11,27,20,053,20,30,45,293,32,16,00,000,,1*5B,1701381353878
NMEA,$GLGSV,3,1,09,74,07,046,10,66,37,324,30,76,46,262,30,75,54,014,22,1*76,1701381353879
NMEA,$GLGSV,3,2,09,65,74,216,28,72,23,160,26,77,04,240,,84,06,053,,1*76,1701381353880
NMEA,$GLGSV,3,3,09,85,00,000,,1*4C,1701381353881
NMEA,$GAGSV,2,1,06,07,17,135,23,19,58,313,25,21,66,217,33,27,55,046,27,7*77,1701381353881
NMEA,$GAGSV,2,2,06,04,02,313,,30,04,043,,7*72,1701381353881
NMEA,$PQGSV,1,1,0,0*43,1701381353881
NMEA,$PQGSV,1,1,0,0*43,1701381353882
NMEA,$GNGSA,A,3,04,05,07,08,09,14,20,22,27,30,,,1.0,0.6,0.7,1*37,1701381353887
NMEA,$GNGSA,A,3,65,66,72,75,76,,,,,,,,1.0,0.6,0.7,2*37,1701381353888
NMEA,$GNGSA,A,3,07,19,21,27,,,,,,,,,1.0,0.6,0.7,3*3A,1701381353888
NMEA,$GNVTG,91.2,T,91.2,M,3.0,N,5.5,K,A*3E,1701381353888
NMEA,$GNRMC,215553.00,A,3725.325419,N,12214.725357,W,3.0,91.2,301123,15.0,E,A,V*47,1701381353888
NMEA,$GNGGA,215553.00,3725.325419,N,12214.725357,W,1,12,0.6,107.3,M,-28.0,M,,*4C,1701381353889
NMEA,$GPGSV,3,1,11,04,25,132,25,05,10,319,17,07,66,344,27,08,36,097,22,1*69,1701381354873
NMEA,$GPGSV,3,2,11,09,61,139,30,14,32,219,28,20,23,286,25,22,14,217,28,1*64,1701381354873
NMEA,$GPGSV,3,3,11,27,20,053,18,30,45,293,31,16,00,000,,1*53,1701381354874
NMEA,$GLGSV,3,1,09,74,07,046,10,66,37,324,29,76,46,262,29,75,54,014,23,1*77,1701381354874
NMEA,$GLGSV,3,2,09,65,74,216,28,72,23,160,28,77,04,240,,84,06,053,,1*78,1701381354874
NMEA,$GLGSV,3,3,09,85,00,000,,1*4C,1701381354874
NMEA,$GAGSV,2,1,06,07,17,135,24,19,58,313,26,21,66,217,31,27,55,046,22,7*74,1701381354875
NMEA,$GAGSV,2,2,06,04,02,313,,30,04,043,,7*72,1701381354875
NMEA,$PQGSV,1,1,0,0*43,1701381354875
NMEA,$PQGSV,1,1,0,0*43,1701381354875
NMEA,$GNGSA,A,3,04,05,07,08,09,14,20,22,27,30,,,1.0,0.6,0.7,1*37,1701381354882
NMEA,$GNGSA,A,3,65,66,72,75,76,,,,,,,,1.0,0.6,0.7,2*37,1701381354883
NMEA,$GNGSA,A,3,07,19,21,27,,,,,,,,,1.0,0.6,0.7,3*3A,1701381354883
NMEA,$GNVTG,91.2,T,91.2,M,3.6,N,6.7,K,A*39,1701381354883
NMEA,$GNRMC,215554.00,A,3725.326281,N,12214.724606,W,3.6,91.2,301123,15.0,E,A,V*42,1701381354883
NMEA,$GNGGA,215554.00,3725.326281,N,12214.724606,W,1,12,0.6,107.4,M,-28.0,M,,*48,1701381354883
NMEA,$GPGSV,3,1,11,04,25,132,24,05,10,319,17,07,66,344,30,08,36,097,24,1*68,1701381355875
NMEA,$GPGSV,3,2,11,09,61,139,31,14,32,219,29,20,23,286,25,22,14,217,25,1*69,1701381355876
NMEA,$GPGSV,3,3,11,27,20,053,18,30,45,293,31,16,00,000,,1*53,1701381355876
NMEA,$GLGSV,3,1,09,74,07,046,10,66,37,324,30,76,46,262,27,75,54,014,25,1*77,1701381355877
NMEA,$GLGSV,3,2,09,65,74,216,29,72,23,160,29,77,04,240,,84,06,053,,1*78,1701381355877
NMEA,$GLGSV,3,3,09,85,00,000,,1*4C,1701381355877
NMEA,$GAGSV,2,1,06,07,17,135,27,19,58,313,27,21,66,217,32,27,55,046,23,7*74,1701381355878
NMEA,$GAGSV,2,2,06,04,02,313,,30,04,043,,7*72,1701381355878
NMEA,$PQGSV,1,1,0,0*43,1701381355878
NMEA,$PQGSV,1,1,0,0*43,1701381355879
NMEA,$GNGSA,A,3,04,05,07,08,09,14,20,22,27,30,,,1.0,0.6,0.7,1*37,1701381355890
NMEA,$GNGSA,A,3,65,66,72,75,76,,,,,,,,1.0,0.6,0.7,2*37,1701381355890
NMEA,$GNGSA,A,3,07,19,21,27,,,,,,,,,1.0,0.6,0.7,3*3A,1701381355890
NMEA,$GNVTG,91.2,T,91.2,M,1.9,N,3.5,K,A*33,1701381355891
NMEA,$GNRMC,215555.00,A,3725.327105,N,12214.724164,W,1.9,91.2,301123,15.0,E,A,V*43,1701381355891
NMEA,$GNGGA,215555.00,3725.327105,N,12214.724164,W,1,12,0.6,107.1,M,-28.0,M,,*41,1701381355891
NMEA,$GPGSV,3,1,11,04,25,132,28,05,10,319,14,07,66,344,31,08,36,097,23,1*61,1701381356878
NMEA,$GPGSV,3,2,11,09,61,139,32,14,32,219,26,20,23,286,27,22,14,217,24,1*66,1701381356879
NMEA,$GPGSV,3,3,11,27,20,053,17,30,45,293,30,16,00,000,,1*5D,1701381356879
NMEA,$GLGSV,3,1,09,74,07,046,10,66,37,324,26,76,46,262,29,75,54,014,30,1*7A,1701381356879
NMEA,$GLGSV,3,2,09,65,74,216,29,72,23,160,32,77,04,240,,84,06,053,,1*72,1701381356880
NMEA,$GLGSV,3,3,09,85,00,000,,1*4C,1701381356880
NMEA,$GAGSV,2,1,06,07,17,135,29,19,58,313,26,21,66,217,32,27,55,046,23,7*7B,1701381356880
NMEA,$GAGSV,2,2,06,04,02,313,,30,04,043,,7*72,1701381356880
NMEA,$PQGSV,1,1,0,0*43,1701381356880
NMEA,$PQGSV,1,1,0,0*43,1701381356881
NMEA,$GNGSA,A,3,04,05,07,08,09,14,20,22,27,30,,,1.0,0.6,0.7,1*37,1701381356885
NMEA,$GNGSA,A,3,65,66,72,75,76,,,,,,,,1.0,0.6,0.7,2*37,1701381356885
NMEA,$GNGSA,A,3,07,19,21,27,,,,,,,,,1.0,0.6,0.7,3*3A,1701381356885
NMEA,$GNVTG,359.3,T,359.3,M,5.4,N,10.0,K,A*0D,1701381356885
NMEA,$GNRMC,215556.00,A,3725.328327,N,12214.724198,W,5.4,359.3,301123,15.0,E,A,V*71,1701381356885
NMEA,$GNGGA,215556.00,3725.328327,N,12214.724198,W,1,12,0.6,106.9,M,-28.0,M,,*45,1701381356886
NMEA,$GPGSV,3,1,11,04,25,132,30,05,10,319,14,07,66,344,34,08,36,097,26,1*68,1701381357878
NMEA,$GPGSV,3,2,11,09,61,139,32,14,32,219,28,20,23,286,26,22,14,217,27,1*6A,1701381357878
NMEA,$GPGSV,3,3,11,27,20,053,22,30,45,293,35,16,00,000,,1*5E,1701381357878
NMEA,$GLGSV,3,1,09,74,07,046,10,66,37,324,25,76,46,262,30,75,54,014,30,1*71,1701381357878
NMEA,$GLGSV,3,2,09,65,74,216,29,72,23,160,29,77,04,240,,84,06,053,,1*78,1701381357879
NMEA,$GLGSV,3,3,09,85,00,000,,1*4C,1701381357879
NMEA,$GAGSV,2,1,06,07,17,135,28,19,58,313,27,21,66,217,32,27,55,046,28,7*70,1701381357879
NMEA,$GAGSV,2,2,06,04,02,313,,30,04,043,,7*72,1701381357879
NMEA,$PQGSV,1,1,0,0*43,1701381357879
NMEA,$PQGSV,1,1,0,0*43,1701381357879
NMEA,$GNGSA,A,3,04,05,07,08,09,14,20,22,27,30,,,1.0,0.6,0.7,1*37,1701381357885
NMEA,$GNGSA,A,3,65,66,72,75,76,,,,,,,,1.0,0.6,0.7,2*37,1701381357886
NMEA,$GNGSA,A,3,07,19,21,27,,,,,,,,,1.0,0.6,0.7,3*3A,1701381357886
NMEA,$GNVTG,303.9,T,303.9,M,3.4,N,6.3,K,A*3F,1701381357886
NMEA,$GNRMC,215557.00,A,3725.329407,N,12214.724863,W,3.4,303.9,301123,15.0,E,A,V*7A,1701381357887
NMEA,$GNGGA,215557.00,3725.329407,N,12214.724863,W,1,12,0.6,107.3,M,-28.0,M,,*46,1701381357887
NMEA,$GPGSV,3,1,11,04,25,132,29,05,10,319,16,07,66,344,33,08,36,097,25,1*66,1701381358876
NMEA,$GPGSV,3,2,11,09,61,139,32,14,32,219,28,20,23,286,26,22,14,217,25,1*68,1701381358877
NMEA,$GPGSV,3,3,11,27,20,053,20,30,45,293,30,16,00,000,,1*59,1701381358877
NMEA,$GLGSV,2,1,08,66,37,324,27,76,46,262,29,75,54,014,31,65,74,216,28,1*72,1701381358877
NMEA,$GLGSV,2,2,08,72,23,160,30,77,04,240,,84,06,053,,85,00,000,,1*73,1701381358878
NMEA,$GAGSV,2,1,06,07,17,135,25,19,58,313,24,21,66,217,29,27,55,046,28,7*74,1701381358878
NMEA,$GAGSV,2,2,06,04,02,313,,30,04,043,,7*72,1701381358878
NMEA,$PQGSV,1,1,0,0*43,1701381358878
NMEA,$PQGSV,1,1,0,0*43,1701381358878
NMEA,$GNGSA,A,3,04,05,07,08,09,14,20,22,27,30,,,1.0,0.6,0.7,1*37,1701381358885
NMEA,$GNGSA,A,3,65,66,72,75,76,,,,,,,,1.0,0.6,0.7,2*37,1701381358885
NMEA,$GNGSA,A,3,07,19,21,27,,,,,,,,,1.0,0.6,0.7,3*3A,1701381358885
NMEA,$GNVTG,301.8,T,301.8,M,2.4,N,4.4,K,A*3B,1701381358885
NMEA,$GNRMC,215558.00,A,3725.329781,N,12214.725803,W,2.4,301.8,301123,15.0,E,A,V*7D,1701381358885
NMEA,$GNGGA,215558.00,3725.329781,N,12214.725803,W,1,12,0.6,107.8,M,-28.0,M,,*48,1701381358885
NMEA,$GPGSV,3,1,11,04,25,132,30,05,10,319,16,07,66,344,33,08,36,097,24,1*6F,1701381359878
NMEA,$GPGSV,3,2,11,09,61,139,34,14,32,219,26,20,23,286,24,22,14,217,24,1*63,1701381359879
NMEA,$GPGSV,3,3,11,27,20,053,29,30,45,293,33,16,00,000,,1*53,1701381359879
NMEA,$GLGSV,3,1,09,66,37,324,30,76,46,262,30,75,54,014,30,65,74,216,27,1*72,1701381359879
NMEA,$GLGSV,3,2,09,72,23,160,30,74,07,046,,77,04,240,,84,06,053,,1*78,1701381359880
NMEA,$GLGSV,3,3,09,85,00,000,,1*4C,1701381359885
NMEA,$GAGSV,2,1,06,07,17,135,27,19,58,313,28,21,66,217,28,27,55,046,27,7*74,1701381359885
NMEA,$GAGSV,2,2,06,04,02,313,,30,04,043,,7*72,1701381359886
NMEA,$PQGSV,1,1,0,0*43,1701381359886
NMEA,$PQGSV,1,1,0,0*43,1701381359886
NMEA,$GNGSA,A,3,04,05,07,08,09,14,20,22,27,30,,,1.0,0.6,0.7,1*37,1701381359890
NMEA,$GNGSA,A,3,65,66,72,75,76,,,,,,,,1.0,0.6,0.7,2*37,1701381359891
NMEA,$GNGSA,A,3,07,19,21,27,,,,,,,,,1.0,0.6,0.7,3*3A,1701381359891
NMEA,$GNVTG,302.1,T,302.1,M,3.4,N,6.3,K,A*3F,1701381359892
NMEA,$GNRMC,215559.00,A,3725.329560,N,12214.726789,W,3.4,302.1,301123,15.0,E,A,V*74,1701381359892
NMEA,$GNGGA,215559.00,3725.329560,N,12214.726789,W,1,12,0.6,106.9,M,-28.0,M,,*4A,1701381359892
NMEA,$GPGSV,3,1,11,04,25,132,29,05,10,319,16,07,66,344,34,08,36,097,25,1*61,1701381360879
NMEA,$GPGSV,3,2,11,09,61,139,34,14,32,219,27,20,23,286,23,22,14,217,21,1*60,1701381360884
NMEA,$GPGSV,3,3,11,27,20,053,28,30,45,293,31,16,00,000,,1*50,1701381360889
NMEA,$GLGSV,3,1,09,66,37,324,29,76,46,262,26,75,54,014,32,65,74,216,25,1*7D,1701381360890
NMEA,$GLGSV,3,2,09,72,23,160,29,74,07,046,,77,04,240,,84,06,053,,1*70,1701381360890
NMEA,$GLGSV,3,3,09,85,00,000,,1*4C,1701381360890
NMEA,$GAGSV,2,1,06,07,17,135,27,19,58,313,26,21,66,217,27,27,55,046,28,7*7A,1701381360891
NMEA,$GAGSV,2,2,06,04,02,313,,30,04,043,,7*72,1701381360891
NMEA,$PQGSV,1,1,0,0*43,1701381360891
NMEA,$PQGSV,1,1,0,0*43,1701381360891
NMEA,$GNGSA,A,3,04,05,07,08,09,14,20,22,27,30,,,1.0,0.6,0.7,1*37,1701381360897
NMEA,$GNGSA,A,3,65,66,72,75,76,,,,,,,,1.0,0.6,0.7,2*37,1701381360897
NMEA,$GNGSA,A,3,07,19,21,27,,,,,,,,,1.0,0.6,0.7,3*3A,1701381360897
NMEA,$GNVTG,301.9,T,301.9,M,2.3,N,4.2,K,A*3A,1701381360897
NMEA,$GNRMC,215600.00,A,3725.328939,N,12214.727559,W,2.3,301.9,301123,15.0,E,A,V*79,1701381360897
NMEA,$GNGGA,215600.00,3725.328939,N,12214.727559,W,1,12,0.6,106.8,M,-28.0,M,,*4B,1701381360897
NMEA,$GPGSV,3,1,11,04,25,132,30,05,10,319,19,07,66,344,30,08,36,097,25,1*62,1701381361875
NMEA,$GPGSV,3,2,11,09,61,139,32,14,32,219,27,20,23,286,22,22,14,217,24,1*62,1701381361875
NMEA,$GPGSV,3,3,11,27,20,053,23,30,45,293,28,16,00,000,,1*53,1701381361876
NMEA,$GLGSV,3,1,09,66,37,324,26,76,46,262,25,75,54,014,31,65,74,216,25,1*72,1701381361876
NMEA,$GLGSV,3,2,09,72,23,160,29,74,07,046,,77,04,240,,84,06,053,,1*70,1701381361877
NMEA,$GLGSV,3,3,09,85,00,000,,1*4C,1701381361877
NMEA,$GAGSV,2,1,06,07,17,135,26,19,58,313,26,21,66,217,26,27,55,046,29,7*7B,1701381361877
NMEA,$GAGSV,2,2,06,04,02,313,,30,04,043,,7*72,1701381361878
NMEA,$PQGSV,1,1,0,0*43,1701381361878
NMEA,$PQGSV,1,1,0,0*43,1701381361878
NMEA,$GNGSA,A,3,04,05,07,08,09,14,20,22,27,30,,,1.0,0.6,0.7,1*37,1701381361881
NMEA,$GNGSA,A,3,65,66,72,75,76,,,,,,,,1.0,0.6,0.7,2*37,1701381361882
NMEA,$GNGSA,A,3,07,19,21,27,,,,,,,,,1.0,0.6,0.7,3*3A,1701381361882
NMEA,$GNVTG,199.7,T,199.7,M,5.1,N,9.4,K,A*34,1701381361882
NMEA,$GNRMC,215601.00,A,3725.327856,N,12214.728049,W,5.1,199.7,301123,15.0,E,A,V*7C,1701381361883
NMEA,$GNGGA,215601.00,3725.327856,N,12214.728049,W,1,12,0.6,108.2,M,-28.0,M,,*42,1701381361884
NMEA,$GPGSV,3,1,11,04,25,132,30,05,10,319,19,07,66,344,32,08,36,097,25,1*60,1701381362877
NMEA,$GPGSV,3,2,11,09,61,139,31,14,32,219,24,20,23,286,26,22,14,217,22,1*60,1701381362877
NMEA,$GPGSV,3,3,11,27,20,053,26,30,45,293,28,16,00,000,,1*56,1701381362878
NMEA,$GLGSV,3,1,09,66,37,324,28,76,46,262,22,75,54,014,33,65,74,216,28,1*74,1701381362878
NMEA,$GLGSV,3,2,09,72,23,160,28,74,07,046,,77,04,240,,84,06,053,,1*71,1701381362878
NMEA,$GLGSV,3,3,09,85,00,000,,1*4C,1701381362879
NMEA,$GAGSV,2,1,06,07,17,135,27,19,58,313,26,21,66,217,28,27,55,046,29,7*74,1701381362879
NMEA,$GAGSV,2,2,06,04,02,313,,30,04,043,,7*72,1701381362879
NMEA,$PQGSV,1,1,0,0*43,1701381362880
NMEA,$PQGSV,1,1,0,0*43,1701381362881
NMEA,$GNGSA,A,3,04,05,07,08,09,14,20,22,27,30,,,1.0,0.6,0.7,1*37,1701381362888
NMEA,$GNGSA,A,3,65,66,72,75,76,,,,,,,,1.0,0.6,0.7,2*37,1701381362888
NMEA,$GNGSA,A,3,07,19,21,27,,,,,,,,,1.0,0.6,0.7,3*3A,1701381362888
NMEA,$GNVTG,181.5,T,181.5,M,3.6,N,6.7,K,A*39,1701381362889
NMEA,$GNRMC,215602.00,A,3725.326576,N,12214.728138,W,3.6,181.5,301123,15.0,E,A,V*7C,1701381362889
NMEA,$GNGGA,215602.00,3725.326576,N,12214.728138,W,1,12,0.6,108.1,M,-28.0,M,,*4B,1701381362889
NMEA,$GPGSV,3,1,11,04,25,132,24,05,10,319,17,07,66,344,32,08,36,097,31,1*6E,1701381363877
NMEA,$GPGSV,3,2,11,09,61,139,32,14,32,219,30,20,23,286,27,22,14,217,23,1*66,1701381363877
NMEA,$GPGSV,3,3,11,27,20,053,23,30,45,293,29,16,00,000,,1*52,1701381363877
NMEA,$GLGSV,3,1,09,66,37,324,30,76,46,262,27,75,54,014,33,65,74,216,31,1*70,1701381363878
NMEA,$GLGSV,3,2,09,72,23,160,31,74,07,046,,77,04,240,,84,06,053,,1*79,1701381363879
NMEA,$GLGSV,3,3,09,85,00,000,,1*4C,1701381363879
NMEA,$GAGSV,2,1,06,07,17,135,27,19,58,313,23,21,66,217,32,27,55,046,28,7*7B,1701381363880
NMEA,$GAGSV,2,2,06,04,02,313,,30,04,043,,7*72,1701381363880
NMEA,$PQGSV,1,1,0,0*43,1701381363881
NMEA,$PQGSV,1,1,0,0*43,1701381363881
NMEA,$GNGSA,A,3,04,05,07,08,09,14,20,22,27,30,,,1.0,0.6,0.7,1*37,1701381363891
NMEA,$GNGSA,A,3,65,66,72,75,76,,,,,,,,1.0,0.6,0.7,2*37,1701381363891
NMEA,$GNGSA,A,3,07,19,21,27,,,,,,,,,1.0,0.6,0.7,3*3A,1701381363891
NMEA,$GNVTG,156.7,T,156.7,M,3.4,N,6.2,K,A*3E,1701381363892
NMEA,$GNRMC,215603.00,A,3725.325534,N,12214.727775,W,3.4,156.7,301123,15.0,E,A,V*72,1701381363892
NMEA,$GNGGA,215603.00,3725.325534,N,12214.727775,W,1,12,0.6,107.9,M,-28.0,M,,*48,1701381363892
NMEA,$GPGSV,3,1,11,04,25,132,28,05,10,319,17,07,66,344,31,08,36,097,27,1*66,1701381364875
NMEA,$GPGSV,3,2,11,09,61,139,35,14,32,219,28,20,23,286,25,22,14,217,24,1*6D,1701381364875
NMEA,$GPGSV,3,3,11,27,20,053,22,30,45,293,31,16,00,000,,1*5A,1701381364876
NMEA,$GLGSV,3,1,09,66,37,324,33,76,46,262,24,75,54,014,32,65,74,216,28,1*79,1701381364876
NMEA,$GLGSV,3,2,09,72,23,160,23,74,07,046,,77,04,240,,84,06,053,,1*7A,1701381364876
NMEA,$GLGSV,3,3,09,85,00,000,,1*4C,1701381364878
NMEA,$GAGSV,2,1,06,07,17,135,23,19,58,313,23,21,66,217,27,27,55,046,29,7*7A,1701381364878
NMEA,$GAGSV,2,2,06,04,02,313,,30,04,043,,7*72,1701381364879
NMEA,$PQGSV,1,1,0,0*43,1701381364880
NMEA,$PQGSV,1,1,0,0*43,1701381364880
NMEA,$GNGSA,A,3,04,05,07,08,09,14,20,22,27,30,,,1.0,0.6,0.7,1*37,1701381364886
NMEA,$GNGSA,A,3,65,66,72,75,76,,,,,,,,1.0,0.6,0.7,2*37,1701381364887
NMEA,$GNGSA,A,3,07,19,21,27,,,,,,,,,1.0,0.6,0.7,3*3A,1701381364887
NMEA,$GNVTG,153.5,T,153.5,M,4.5,N,8.4,K,A*30,1701381364887
NMEA,$GNRMC,215604.00,A,3725.324446,N,12214.727093,W,4.5,153.5,301123,15.0,E,A,V*7E,1701381364887
NMEA,$GNGGA,215604.00,3725.324446,N,12214.727093,W,1,12,0.6,107.6,M,-28.0,M,,*4A,1701381364888
NMEA,$GPGSV,3,1,11,04,25,132,28,05,10,319,16,07,66,344,32,08,36,097,28,1*6B,1701381365880
NMEA,$GPGSV,3,2,11,09,61,139,36,14,32,219,28,20,23,286,23,22,14,217,22,1*6E,1701381365880
NMEA,$GPGSV,3,3,11,27,20,053,23,30,45,293,31,16,00,000,,1*5B,1701381365880
NMEA,$GLGSV,3,1,09,66,37,324,32,76,46,262,24,75,54,014,30,65,74,216,28,1*7A,1701381365881
NMEA,$GLGSV,3,2,09,72,23,160,20,74,07,046,,77,04,240,,84,06,053,,1*79,1701381365881
NMEA,$GLGSV,3,3,09,85,00,000,,1*4C,1701381365881
NMEA,$GAGSV,2,1,06,07,17,135,24,19,58,313,23,21,66,217,27,27,55,046,28,7*7C,1701381365882
NMEA,$GAGSV,2,2,06,04,02,313,,30,04,043,,7*72,1701381365883
NMEA,$PQGSV,1,1,0,0*43,1701381365885
NMEA,$PQGSV,1,1,0,0*43,1701381365885
NMEA,$GNGSA,A,3,04,05,07,08,09,14,20,22,27,30,,,1.0,0.6,0.7,1*37,1701381365893
NMEA,$GNGSA,A,3,65,66,72,75,76,,,,,,,,1.0,0.6,0.7,2*37,1701381365894
NMEA,$GNGSA,A,3,07,19,21,27,,,,,,,,,1.0,0.6,0.7,3*3A,1701381365894
NMEA,$GNVTG,156.7,T,156.7,M,2.8,N,5.2,K,A*30,1701381365895
NMEA,$GNRMC,215605.00,A,3725.323637,N,12214.726257,W,2.8,156.7,301123,15.0,E,A,V*7B,1701381365896
NMEA,$GNGGA,215605.00,3725.323637,N,12214.726257,W,1,12,0.6,107.4,M,-28.0,M,,*41,1701381365896
NMEA,$GPGSV,3,1,11,04,25,132,24,05,10,319,19,07,66,344,30,08,36,097,30,1*63,1701381366881
NMEA,$GPGSV,3,2,11,09,61,139,34,14,32,219,28,20,23,286,23,22,14,217,24,1*6A,1701381366881
NMEA,$GPGSV,3,3,11,27,20,053,25,30,45,293,27,16,00,000,,1*5A,1701381366882
NMEA,$GLGSV,3,1,09,66,37,324,30,76,46,262,26,75,54,014,30,65,74,216,27,1*75,1701381366882
NMEA,$GLGSV,3,2,09,72,23,160,23,74,07,046,,77,04,240,,84,06,053,,1*7A,1701381366882
NMEA,$GLGSV,3,3,09,85,00,000,,1*4C,1701381366882
NMEA,$GAGSV,2,1,06,07,17,135,21,19,58,313,26,21,66,217,25,27,55,046,27,7*71,1701381366882
NMEA,$GAGSV,2,2,06,04,02,313,,30,04,043,,7*72,1701381366883
NMEA,$PQGSV,1,1,0,0*43,1701381366883
NMEA,$PQGSV,1,1,0,0*43,1701381366883
NMEA,$GNGSA,A,3,04,05,07,08,09,14,20,22,27,30,,,1.0,0.6,0.7,1*37,1701381366889
NMEA,$GNGSA,A,3,65,66,72,75,76,,,,,,,,1.0,0.6,0.7,2*37,1701381366889
NMEA,$GNGSA,A,3,07,19,21,27,,,,,,,,,1.0,0.6,0.7,3*3A,1701381366889
NMEA,$GNVTG,131.7,T,131.7,M,4.8,N,8.9,K,A*30,1701381366890
NMEA,$GNRMC,215606.00,A,3725.322954,N,12214.725145,W,4.8,131.7,301123,15.0,E,A,V*77,1701381366890
NMEA,$GNGGA,215606.00,3725.322954,N,12214.725145,W,1,12,0.6,106.7,M,-28.0,M,,*48,1701381366890
NMEA,$GPGSV,3,1,11,04,25,132,25,05,10,319,20,07,66,344,34,08,36,097,30,1*6C,1701381367880
NMEA,$GPGSV,3,2,11,09,61,139,32,14,32,219,25,20,23,286,26,22,14,217,24,1*64,1701381367880
NMEA,$GPGSV,3,3,11,27,20,053,21,30,45,293,30,16,00,000,,1*58,1701381367881
NMEA,$GLGSV,3,1,09,66,37,324,32,76,46,262,29,75,54,014,31,65,74,216,21,1*7F,1701381367881
NMEA,$GLGSV,3,2,09,72,23,160,21,74,07,046,,77,04,240,,84,06,053,,1*78,1701381367881
